city,city_ascii,state_id,state_name,county_fips,county_name,lat,lng,population,density,source,military,incorporated
New York,New York,NY,New York,36061,New York,40.6943,-73.9249,18713220,10715,polygon,FALSE,TRUE
Los Angeles,Los Angeles,CA,California,6037,Los Angeles,34.1139,-118.4068,12750807,3276,polygon,FALSE,TRUE
Chicago,Chicago,IL,Illinois,17031,Cook,41.8373,-87.6862,8604203,4574,polygon,FALSE,TRUE
Miami,Miami,FL,Florida,12086,Miami-Dade,25.7839,-80.2102,6445545,5019,polygon,FALSE,TRUE
Dallas,Dallas,TX,Texas,48113,Dallas,32.7936,-96.7662,5743938,1526,polygon,FALSE,TRUE
Philadelphia,Philadelphia,PA,Pennsylvania,42101,Philadelphia,40.0077,-75.1339,5649300,4554,polygon,FALSE,TRUE
Houston,Houston,TX,Texas,48201,Harris,29.7863,-95.3889,5464251,1399,polygon,FALSE,TRUE
Atlanta,Atlanta,GA,Georgia,13121,Fulton,33.7627,-84.4224,5449398,1441,polygon,FALSE,TRUE
Washington,Washington,DC,District of Columbia,11001,District of Columbia,38.9047,-77.0163,5379184,4457,polygon,FALSE,TRUE
Boston,Boston,MA,Massachusetts,25025,Suffolk,42.3188,-71.0846,4688346,5532,polygon,FALSE,TRUE
Phoenix,Phoenix,AZ,Arizona,4013,Maricopa,33.5722,-112.0891,4219697,1253,polygon,FALSE,TRUE
Seattle,Seattle,WA,Washington,53033,King,47.6211,-122.3244,3789215,3469,polygon,FALSE,TRUE
San Francisco,San Francisco,CA,California,6075,San Francisco,37.7562,-122.443,3592294,7256,polygon,FALSE,TRUE
Detroit,Detroit,MI,Michigan,26163,Wayne,42.3834,-83.1024,3506126,1864,polygon,FALSE,TRUE
San Diego,San Diego,CA,California,6073,San Diego,32.8312,-117.1225,3220118,1686,polygon,FALSE,TRUE
Minneapolis,Minneapolis,MN,Minnesota,27053,Hennepin,44.9635,-93.2678,2977172,3071,polygon,FALSE,TRUE
Tampa,Tampa,FL,Florida,12057,Hillsborough,27.9942,-82.4451,2908063,1353,polygon,FALSE,TRUE
Denver,Denver,CO,Colorado,8031,Denver,39.7621,-104.8759,2876625,1831,polygon,FALSE,TRUE
Brooklyn,Brooklyn,NY,New York,36047,Kings,40.6501,-73.9496,2559903,14221,polygon,FALSE,TRUE
Queens,Queens,NY,New York,36081,Queens,40.7498,-73.7976,2230722,7885,polygon,FALSE,TRUE
Riverside,Riverside,CA,California,6065,Riverside,33.9381,-117.3948,2107852,1574,polygon,FALSE,TRUE
Baltimore,Baltimore,MD,Maryland,24510,Baltimore,39.3051,-76.6144,2106068,2830,polygon,FALSE,TRUE
Las Vegas,Las Vegas,NV,Nevada,32003,Clark,36.2333,-115.2654,2104198,1773,polygon,FALSE,TRUE
Portland,Portland,OR,Oregon,41051,Multnomah,45.5372,-122.65,2074775,1894,polygon,FALSE,TRUE
San Antonio,San Antonio,TX,Texas,48029,Bexar,29.4658,-98.5253,2049293,1231,polygon,FALSE,TRUE
St. Louis,St. Louis,MO,Missouri,29510,St. Louis,38.6358,-90.2451,2024074,1879,polygon,FALSE,TRUE
Sacramento,Sacramento,CA,California,6067,Sacramento,38.5667,-121.4683,1898019,2029,polygon,FALSE,TRUE
Orlando,Orlando,FL,Florida,12095,Orange,28.4772,-81.3369,1822394,1003,polygon,FALSE,TRUE
San Jose,San Jose,CA,California,6085,Santa Clara,37.3019,-121.8486,1798103,2218,polygon,FALSE,TRUE
Cleveland,Cleveland,OH,Ohio,39035,Cuyahoga,41.4767,-81.6804,1710093,1893,polygon,FALSE,TRUE
Pittsburgh,Pittsburgh,PA,Pennsylvania,42003,Allegheny,40.4396,-79.9762,1703266,2093,polygon,FALSE,TRUE
Austin,Austin,TX,Texas,48453,Travis,30.3004,-97.7522,1687311,1181,polygon,FALSE,TRUE
Cincinnati,Cincinnati,OH,Ohio,39061,Hamilton,39.1413,-84.5061,1662691,1507,polygon,FALSE,TRUE
Kansas City,Kansas City,MO,Missouri,29095,Jackson,39.1239,-94.5541,1636715,607,polygon,FALSE,TRUE
Manhattan,Manhattan,NY,New York,36061,New York,40.7834,-73.9662,1628706,27545,polygon,FALSE,TRUE
Indianapolis,Indianapolis,IN,Indiana,18097,Marion,39.7771,-86.1458,1588961,935,polygon,FALSE,TRUE
Columbus,Columbus,OH,Ohio,39049,Franklin,39.9862,-82.985,1562009,1582,polygon,FALSE,TRUE
Charlotte,Charlotte,NC,North Carolina,37119,Mecklenburg,35.208,-80.8304,1512923,1113,polygon,FALSE,TRUE
Virginia Beach,Virginia Beach,VA,Virginia,51810,Virginia Beach,36.7335,-76.0435,1478868,709,polygon,FALSE,TRUE
Bronx,Bronx,NY,New York,36005,Bronx,40.8501,-73.8662,1418207,12862,polygon,FALSE,TRUE
Milwaukee,Milwaukee,WI,Wisconsin,55079,Milwaukee,43.0642,-87.9673,1365787,2369,polygon,FALSE,TRUE
Providence,Providence,RI,Rhode Island,44007,Providence,41.823,-71.4187,1203230,3773,polygon,FALSE,TRUE
Jacksonville,Jacksonville,FL,Florida,12031,Duval,30.3322,-81.6749,1181496,470,polygon,FALSE,TRUE
Salt Lake City,Salt Lake City,UT,Utah,49035,Salt Lake,40.7777,-111.9306,1098526,699,polygon,FALSE,TRUE
Nashville,Nashville,TN,Tennessee,47037,Davidson,36.1715,-86.7843,1081903,544,polygon,FALSE,TRUE
Richmond,Richmond,VA,Virginia,51760,Richmond,37.5295,-77.4756,1075798,1484,polygon,FALSE,TRUE
Memphis,Memphis,TN,Tennessee,47157,Shelby,35.1046,-89.9773,1066967,792,polygon,FALSE,TRUE
Raleigh,Raleigh,NC,North Carolina,37183,Wake,35.8325,-78.6435,1038738,1254,polygon,FALSE,TRUE
New Orleans,New Orleans,LA,Louisiana,22071,Orleans,30.0687,-89.9288,1020886,889,polygon,FALSE,TRUE
Louisville,Louisville,KY,Kentucky,21111,Jefferson,38.1663,-85.6485,1005654,905,polygon,FALSE,TRUE
Oklahoma City,Oklahoma City,OK,Oklahoma,40109,Oklahoma,35.4676,-97.5136,972943,417,polygon,FALSE,TRUE
Bridgeport,Bridgeport,CT,Connecticut,9001,Fairfield,41.1918,-73.1953,924449,3470,polygon,FALSE,TRUE
Buffalo,Buffalo,NY,New York,36029,Erie,42.9016,-78.8487,914341,2441,polygon,FALSE,TRUE
Fort Worth,Fort Worth,TX,Texas,48439,Tarrant,32.7811,-97.3473,909585,1016,polygon,FALSE,TRUE
Hartford,Hartford,CT,Connecticut,9003,Hartford,41.7661,-72.6834,905152,2712,polygon,FALSE,TRUE
Tucson,Tucson,AZ,Arizona,4019,Pima,32.1545,-110.8782,888486,889,polygon,FALSE,TRUE
Omaha,Omaha,NE,Nebraska,31055,Douglas,41.2627,-96.0522,847819,1309,polygon,FALSE,TRUE
El Paso,El Paso,TX,Texas,48141,El Paso,31.8479,-106.4309,843386,1022,polygon,FALSE,TRUE
Honolulu,Honolulu,HI,Hawaii,15003,Honolulu,21.3294,-157.846,820987,2200,polygon,FALSE,TRUE
McAllen,McAllen,TX,Texas,48215,Hidalgo,26.2273,-98.2471,804114,841,polygon,FALSE,TRUE
Albuquerque,Albuquerque,NM,New Mexico,35001,Bernalillo,35.1053,-106.6464,761195,1155,polygon,FALSE,TRUE
Birmingham,Birmingham,AL,Alabama,1073,Jefferson,33.5277,-86.7987,739573,553,polygon,FALSE,TRUE
Sarasota,Sarasota,FL,Florida,12115,Sarasota,27.3386,-82.5431,722243,1528,polygon,FALSE,TRUE
Dayton,Dayton,OH,Ohio,39113,Montgomery,39.7797,-84.1998,718353,978,polygon,FALSE,TRUE
Rochester,Rochester,NY,New York,36055,Monroe,43.168,-77.6162,703952,2220,polygon,FALSE,TRUE
Fresno,Fresno,CA,California,6019,Fresno,36.7831,-119.7941,703498,1789,polygon,FALSE,TRUE
Allentown,Allentown,PA,Pennsylvania,42077,Lehigh,40.5961,-75.4756,683794,2672,polygon,FALSE,TRUE
Tulsa,Tulsa,OK,Oklahoma,40143,Tulsa,36.1284,-95.9042,671033,784,polygon,FALSE,TRUE
Cape Coral,Cape Coral,FL,Florida,12071,Lee,26.6446,-81.9956,668382,708,polygon,FALSE,TRUE
Concord,Concord,CA,California,6013,Contra Costa,37.9722,-122.0016,652308,1633,polygon,FALSE,TRUE
Colorado Springs,Colorado Springs,CO,Colorado,8041,El Paso,38.8674,-104.7606,642413,946,polygon,FALSE,TRUE
Charleston,Charleston,SC,South Carolina,45019,Charleston,32.8153,-79.9628,628377,480,polygon,FALSE,TRUE
Springfield,Springfield,MA,Massachusetts,25013,Hampden,42.1155,-72.5395,623401,1860,polygon,FALSE,TRUE
Grand Rapids,Grand Rapids,MI,Michigan,26081,Kent,42.962,-85.6562,609314,1734,polygon,FALSE,TRUE
Mission Viejo,Mission Viejo,CA,California,6059,Orange,33.6095,-117.655,590249,2058,polygon,FALSE,TRUE
Albany,Albany,NY,New York,36001,Albany,42.6664,-73.7987,586383,1740,polygon,FALSE,TRUE
Knoxville,Knoxville,TN,Tennessee,47093,Knox,35.9692,-83.9496,586048,733,polygon,FALSE,TRUE
Bakersfield,Bakersfield,CA,California,6029,Kern,35.3529,-119.0359,579295,990,polygon,FALSE,TRUE
Ogden,Ogden,UT,Utah,49057,Weber,41.2278,-111.9682,578523,1230,polygon,FALSE,TRUE
Baton Rouge,Baton Rouge,LA,Louisiana,22033,East Baton Rouge,30.4418,-91.131,570308,983,polygon,FALSE,TRUE
Akron,Akron,OH,Ohio,39153,Summit,41.0798,-81.5219,565208,1231,polygon,FALSE,TRUE
New Haven,New Haven,CT,Connecticut,9009,New Haven,41.3112,-72.9246,564830,2690,polygon,FALSE,TRUE
Columbia,Columbia,SC,South Carolina,45079,Richland,34.0376,-80.9037,560041,373,polygon,FALSE,TRUE
Mesa,Mesa,AZ,Arizona,4013,Maricopa,33.4017,-111.718,518012,1448,polygon,FALSE,TRUE
Palm Bay,Palm Bay,FL,Florida,12009,Brevard,27.955,-80.6627,507002,456,polygon,FALSE,TRUE
Provo,Provo,UT,Utah,49049,Utah,40.2457,-111.6457,500617,1080,polygon,FALSE,TRUE
Worcester,Worcester,MA,Massachusetts,25027,Worcester,42.2705,-71.8079,498328,1916,polygon,FALSE,TRUE
Murrieta,Murrieta,CA,California,6065,Riverside,33.572,-117.1909,496046,1335,polygon,FALSE,TRUE
Greenville,Greenville,SC,South Carolina,45045,Greenville,34.8353,-82.3647,484465,920,polygon,FALSE,TRUE
Wichita,Wichita,KS,Kansas,20173,Sedgwick,37.6896,-97.3442,482249,931,polygon,FALSE,TRUE
Toledo,Toledo,OH,Ohio,39095,Lucas,41.6639,-83.5822,482111,1308,polygon,FALSE,TRUE
Staten Island,Staten Island,NY,New York,36085,Richmond,40.5834,-74.1496,476143,3156,polygon,FALSE,TRUE
Des Moines,Des Moines,IA,Iowa,19153,Polk,41.5725,-93.6105,473957,938,polygon,FALSE,TRUE
Long Beach,Long Beach,CA,California,6037,Los Angeles,33.7981,-118.1675,462628,3523,polygon,FALSE,TRUE
Port St. Lucie,Port St. Lucie,FL,Florida,12111,St. Lucie,27.2796,-80.3883,461152,653,polygon,FALSE,TRUE
Denton,Denton,TX,Texas,48121,Denton,33.2176,-97.1419,457177,567,polygon,FALSE,TRUE
Madison,Madison,WI,Wisconsin,55025,Dane,43.0826,-89.3931,447245,1263,polygon,FALSE,TRUE
Reno,Reno,NV,Nevada,32031,Washoe,39.5497,-119.8483,445020,907,polygon,FALSE,TRUE
Harrisburg,Harrisburg,PA,Pennsylvania,42043,Dauphin,40.2752,-76.8843,442289,2343,polygon,FALSE,TRUE
Little Rock,Little Rock,AR,Arkansas,5119,Pulaski,34.7256,-92.3576,439815,634,polygon,FALSE,TRUE
Oakland,Oakland,CA,California,6001,Alameda,37.7903,-122.2165,433031,2991,polygon,FALSE,TRUE
Durham,Durham,NC,North Carolina,37063,Durham,35.9794,-78.9031,424700,959,polygon,FALSE,TRUE
Winston-Salem,Winston-Salem,NC,North Carolina,37067,Forsyth,36.1029,-80.2611,422269,721,polygon,FALSE,TRUE
Bonita Springs,Bonita Springs,FL,Florida,12071,Lee,26.3559,-81.7861,421291,600,polygon,FALSE,TRUE
Indio,Indio,CA,California,6065,Riverside,33.7346,-116.2346,417059,1066,polygon,FALSE,TRUE
Palm Coast,Palm Coast,FL,Florida,12035,Flagler,29.5392,-81.246,417007,364,polygon,FALSE,TRUE
Chattanooga,Chattanooga,TN,Tennessee,47065,Hamilton,35.0657,-85.2488,415501,493,polygon,FALSE,TRUE
Spokane,Spokane,WA,Washington,53063,Spokane,47.6671,-117.433,412275,1247,polygon,FALSE,TRUE
Syracuse,Syracuse,NY,New York,36067,Onondaga,43.0409,-76.1438,404223,2195,polygon,FALSE,TRUE
Lancaster,Lancaster,PA,Pennsylvania,42071,Lancaster,40.0421,-76.3012,401524,3166,polygon,FALSE,TRUE
Arlington,Arlington,TX,Texas,48439,Tarrant,32.6998,-97.125,398854,1607,polygon,FALSE,TRUE
Stockton,Stockton,CA,California,6077,San Joaquin,37.9765,-121.3109,397264,1941,polygon,FALSE,TRUE
Poughkeepsie,Poughkeepsie,NY,New York,36027,Dutchess,41.6949,-73.921,394760,2290,polygon,FALSE,TRUE
Augusta,Augusta,GA,Georgia,13245,Richmond,33.3645,-82.0708,390809,252,polygon,FALSE,TRUE
Boise,Boise,ID,Idaho,16001,Ada,43.6007,-116.2312,389280,1056,polygon,FALSE,TRUE
Oxnard,Oxnard,CA,California,6111,Ventura,34.1963,-119.1815,387647,3040,polygon,FALSE,TRUE
Scranton,Scranton,PA,Pennsylvania,42069,Lackawanna,41.4044,-75.6649,384250,1169,polygon,FALSE,TRUE
Modesto,Modesto,CA,California,6099,Stanislaus,37.6374,-121.0028,383134,1933,polygon,FALSE,TRUE
Kissimmee,Kissimmee,FL,Florida,12097,Osceola,28.3042,-81.4164,382720,1349,polygon,FALSE,TRUE
Aurora,Aurora,CO,Colorado,8001,Adams,39.7087,-104.7273,379289,949,polygon,FALSE,TRUE
Youngstown,Youngstown,OH,Ohio,39099,Mahoning,41.0993,-80.6463,378732,744,polygon,FALSE,TRUE
Fayetteville,Fayetteville,AR,Arkansas,5143,Washington,36.0713,-94.166,351246,625,polygon,FALSE,TRUE
Anaheim,Anaheim,CA,California,6059,Orange,33.839,-117.8572,350365,2688,polygon,FALSE,TRUE
Pensacola,Pensacola,FL,Florida,12033,Escambia,30.4427,-87.1886,346921,903,polygon,FALSE,TRUE
Victorville,Victorville,CA,California,6071,San Bernardino,34.5277,-117.3536,346789,641,polygon,FALSE,TRUE
Lancaster,Lancaster,CA,California,6037,Los Angeles,34.6935,-118.1753,343304,645,polygon,FALSE,TRUE
Greensboro,Greensboro,NC,North Carolina,37081,Guilford,36.0956,-79.8269,343090,887,polygon,FALSE,TRUE
Corpus Christi,Corpus Christi,TX,Texas,48355,Nueces,27.726,-97.3755,342464,789,polygon,FALSE,TRUE
Fort Wayne,Fort Wayne,IN,Indiana,18003,Allen,41.0886,-85.1437,334122,943,polygon,FALSE,TRUE
Santa Ana,Santa Ana,CA,California,6059,Orange,33.7366,-117.8819,332318,4689,polygon,FALSE,TRUE
Flint,Flint,MI,Michigan,26049,Genesee,43.0235,-83.6922,332190,1103,polygon,FALSE,TRUE
San Juan,San Juan,PR,Puerto Rico,72127,San Juan,18.4037,-66.0636,331165,3234,polygon,FALSE,FALSE
Fayetteville,Fayetteville,NC,North Carolina,37051,Cumberland,35.0846,-78.9776,327435,552,polygon,FALSE,TRUE
Jackson,Jackson,MS,Mississippi,28049,Hinds,32.3163,-90.2124,325350,558,polygon,FALSE,TRUE
Santa Rosa,Santa Rosa,CA,California,6097,Sonoma,38.4458,-122.7067,324634,1605,polygon,FALSE,TRUE
Lansing,Lansing,MI,Michigan,26065,Ingham,42.7142,-84.5601,324286,1164,polygon,FALSE,TRUE
Ann Arbor,Ann Arbor,MI,Michigan,26161,Washtenaw,42.2755,-83.7312,322267,1659,polygon,FALSE,TRUE
Henderson,Henderson,NV,Nevada,32003,Clark,36.0133,-115.038,320189,1165,polygon,FALSE,TRUE
Huntsville,Huntsville,AL,Alabama,1089,Madison,34.6988,-86.6412,319249,361,polygon,FALSE,TRUE
Lexington,Lexington,KY,Kentucky,21067,Fayette,38.0423,-84.4587,317110,439,polygon,FALSE,TRUE
Mobile,Mobile,AL,Alabama,1097,Mobile,30.6783,-88.1162,315502,522,polygon,FALSE,TRUE
Fort Collins,Fort Collins,CO,Colorado,8069,Larimer,40.5478,-105.0656,312666,1149,polygon,FALSE,TRUE
Asheville,Asheville,NC,North Carolina,37021,Buncombe,35.5704,-82.5536,312507,786,polygon,FALSE,TRUE
Santa Clarita,Santa Clarita,CA,California,6037,Los Angeles,34.4175,-118.4964,312446,1162,polygon,FALSE,TRUE
St. Paul,St. Paul,MN,Minnesota,27123,Ramsey,44.9477,-93.104,308096,2288,polygon,FALSE,TRUE
Antioch,Antioch,CA,California,6013,Contra Costa,37.9789,-121.7958,302419,1466,polygon,FALSE,TRUE
Lakeland,Lakeland,FL,Florida,12105,Polk,28.0556,-81.9545,302284,654,polygon,FALSE,TRUE
Trenton,Trenton,NJ,New Jersey,34021,Mercer,40.2236,-74.7641,290716,4238,polygon,FALSE,TRUE
Lincoln,Lincoln,NE,Nebraska,31109,Lancaster,40.809,-96.6788,289490,1160,polygon,FALSE,TRUE
Springfield,Springfield,MO,Missouri,29077,Greene,37.1943,-93.2916,288090,786,polygon,FALSE,TRUE
Plano,Plano,TX,Texas,48085,Collin,33.0502,-96.7487,287677,1549,polygon,FALSE,TRUE
Irvine,Irvine,CA,California,6059,Orange,33.6772,-117.7738,287401,1691,polygon,FALSE,TRUE
Davenport,Davenport,IA,Iowa,19163,Scott,41.5563,-90.6052,285362,617,polygon,FALSE,TRUE
Rockford,Rockford,IL,Illinois,17201,Winnebago,42.2597,-89.0641,282762,873,polygon,FALSE,TRUE
Newark,Newark,NJ,New Jersey,34013,Essex,40.7245,-74.1725,282011,4509,polygon,FALSE,TRUE
South Bend,South Bend,IN,Indiana,18141,St. Joseph,41.6767,-86.2696,280498,938,polygon,FALSE,TRUE
Shreveport,Shreveport,LA,Louisiana,22017,Caddo,32.4656,-93.7956,280062,672,polygon,FALSE,TRUE
Round Lake Beach,Round Lake Beach,IL,Illinois,17097,Lake,42.379,-88.0811,279381,2073,polygon,FALSE,TRUE
Savannah,Savannah,GA,Georgia,13051,Chatham,32.0281,-81.1784,276295,536,polygon,FALSE,TRUE
Myrtle Beach,Myrtle Beach,SC,South Carolina,45051,Horry,33.7096,-78.8843,275579,568,polygon,FALSE,TRUE
Chula Vista,Chula Vista,CA,California,6073,San Diego,32.6281,-117.0145,274492,2134,polygon,FALSE,TRUE
Eugene,Eugene,OR,Oregon,41039,Lane,44.0563,-123.1173,273439,1510,polygon,FALSE,TRUE
Canton,Canton,OH,Ohio,39151,Stark,40.8075,-81.3677,269418,1040,polygon,FALSE,TRUE
Lubbock,Lubbock,TX,Texas,48303,Lubbock,33.5659,-101.8878,267648,741,polygon,FALSE,TRUE
Reading,Reading,PA,Pennsylvania,42011,Berks,40.34,-75.9267,267155,3466,polygon,FALSE,TRUE
Winter Haven,Winter Haven,FL,Florida,12105,Polk,28.0118,-81.7017,267069,538,polygon,FALSE,TRUE
Salem,Salem,OR,Oregon,41047,Marion,44.9231,-123.0246,266804,1382,polygon,FALSE,TRUE
St. Petersburg,St. Petersburg,FL,Florida,12103,Pinellas,27.7931,-82.6652,265351,1656,polygon,FALSE,TRUE
Lafayette,Lafayette,LA,Louisiana,22055,Lafayette,30.2084,-92.0323,264357,877,polygon,FALSE,TRUE
Laredo,Laredo,TX,Texas,48479,Webb,27.5629,-99.4875,262079,958,polygon,FALSE,TRUE
Jersey City,Jersey City,NJ,New Jersey,34017,Hudson,40.7161,-74.0682,262075,6863,polygon,FALSE,TRUE
Concord,Concord,NC,North Carolina,37025,Cabarrus,35.3933,-80.6366,261801,585,polygon,FALSE,TRUE
Columbus,Columbus,GA,Georgia,13215,Muscogee,32.51,-84.8771,261445,349,polygon,FALSE,TRUE
Chandler,Chandler,AZ,Arizona,4013,Maricopa,33.2826,-111.8516,261165,1548,polygon,FALSE,TRUE
McKinney,McKinney,TX,Texas,48085,Collin,33.2015,-96.6669,258277,1148,polygon,FALSE,TRUE
Scottsdale,Scottsdale,AZ,Arizona,4013,Maricopa,33.6872,-111.8651,258069,541,polygon,FALSE,TRUE
Killeen,Killeen,TX,Texas,48027,Bell,31.0754,-97.7296,258009,1073,polygon,FALSE,TRUE
Tallahassee,Tallahassee,FL,Florida,12073,Leon,30.4551,-84.2526,257601,747,polygon,FALSE,TRUE
Peoria,Peoria,IL,Illinois,17143,Peoria,40.752,-89.6153,256286,888,polygon,FALSE,TRUE
Wilmington,Wilmington,NC,North Carolina,37129,New Hanover,34.21,-77.8866,255616,929,polygon,FALSE,TRUE
Montgomery,Montgomery,AL,Alabama,1101,Montgomery,32.3473,-86.2666,254634,479,polygon,FALSE,TRUE
Gilbert,Gilbert,AZ,Arizona,4013,Maricopa,33.3101,-111.7463,254114,1432,polygon,FALSE,TRUE
Glendale,Glendale,AZ,Arizona,4013,Maricopa,33.5791,-112.2311,252381,1582,polygon,FALSE,TRUE
North Las Vegas,North Las Vegas,NV,Nevada,32003,Clark,36.288,-115.0901,251974,992,polygon,FALSE,TRUE
Anchorage,Anchorage,AK,Alaska,2020,Anchorage,61.1508,-149.1091,247949,65,polygon,FALSE,TRUE
Chesapeake,Chesapeake,VA,Virginia,51550,Chesapeake,36.6778,-76.3024,244835,279,polygon,FALSE,TRUE
Barnstable Town,Barnstable Town,MA,Massachusetts,25001,Barnstable,41.6722,-70.3599,242847,286,polygon,FALSE,TRUE
Norfolk,Norfolk,VA,Virginia,51710,Norfolk,36.8945,-76.259,242742,1759,polygon,FALSE,TRUE
Fremont,Fremont,CA,California,6001,Alameda,37.5265,-121.9852,241110,1201,polygon,FALSE,TRUE
Kennewick,Kennewick,WA,Washington,53005,Benton,46.1978,-119.1732,240735,1186,polygon,FALSE,TRUE
Garland,Garland,TX,Texas,48113,Dallas,32.91,-96.6305,239928,1623,polygon,FALSE,TRUE
Irving,Irving,TX,Texas,48113,Dallas,32.8584,-96.9702,239798,1380,polygon,FALSE,TRUE
Visalia,Visalia,CA,California,6107,Tulare,36.3276,-119.3269,237386,1370,polygon,FALSE,TRUE
Atlantic City,Atlantic City,NJ,New Jersey,34001,Atlantic,39.3797,-74.4527,237054,1354,polygon,FALSE,TRUE
Nashua,Nashua,NH,New Hampshire,33011,Hillsborough,42.7491,-71.491,233917,1118,polygon,FALSE,TRUE
Paradise,Paradise,NV,Nevada,32003,Clark,36.0807,-115.1369,233689,1930,polygon,FALSE,FALSE
Hialeah,Hialeah,FL,Florida,12086,Miami-Dade,25.8696,-80.3046,233339,4174,polygon,FALSE,TRUE
York,York,PA,Pennsylvania,42133,York,39.9651,-76.7315,233184,3204,polygon,FALSE,TRUE
Arlington,Arlington,VA,Virginia,51013,Arlington,38.8786,-77.1011,231803,3442,polygon,FALSE,FALSE
Evansville,Evansville,IN,Indiana,18163,Vanderburgh,37.9881,-87.5341,230427,962,polygon,FALSE,TRUE
Avondale,Avondale,AZ,Arizona,4013,Maricopa,33.3858,-112.3236,227289,750,polygon,FALSE,TRUE
Brownsville,Brownsville,TX,Texas,48061,Cameron,25.998,-97.4565,227239,533,polygon,FALSE,TRUE
Gulfport,Gulfport,MS,Mississippi,28047,Harrison,30.4271,-89.0703,220987,497,polygon,FALSE,TRUE
Appleton,Appleton,WI,Wisconsin,55087,Outagamie,44.2779,-88.3891,220570,1156,polygon,FALSE,TRUE
Bremerton,Bremerton,WA,Washington,53035,Kitsap,47.5436,-122.7122,218400,561,polygon,FALSE,TRUE
Hickory,Hickory,NC,North Carolina,37035,Catawba,35.7425,-81.323,218323,536,polygon,FALSE,TRUE
Tacoma,Tacoma,WA,Washington,53053,Pierce,47.2431,-122.4531,217827,1690,polygon,FALSE,TRUE
San Bernardino,San Bernardino,CA,California,6071,San Bernardino,34.1417,-117.2946,215784,1341,polygon,FALSE,TRUE
College Station,College Station,TX,Texas,48041,Brazos,30.5852,-96.296,215243,890,polygon,FALSE,TRUE
Kalamazoo,Kalamazoo,MI,Michigan,26077,Kalamazoo,42.2749,-85.5882,215193,1192,polygon,FALSE,TRUE
Thousand Oaks,Thousand Oaks,CA,California,6111,Ventura,34.1914,-118.8755,215029,885,polygon,FALSE,TRUE
Roanoke,Roanoke,VA,Virginia,51770,Roanoke,37.2785,-79.958,214674,900,polygon,FALSE,TRUE
Fontana,Fontana,CA,California,6071,San Bernardino,34.0968,-117.4599,214547,1923,polygon,FALSE,TRUE
Moreno Valley,Moreno Valley,CA,California,6065,Riverside,33.9244,-117.2045,213055,1604,polygon,FALSE,TRUE
North Port,North Port,FL,Florida,12115,Sarasota,27.0577,-82.1975,209070,274,polygon,FALSE,TRUE
Fargo,Fargo,ND,North Dakota,38017,Cass,46.8652,-96.8292,208675,967,polygon,FALSE,TRUE
Green Bay,Green Bay,WI,Wisconsin,55009,Brown,44.515,-87.9896,207557,887,polygon,FALSE,TRUE
Amarillo,Amarillo,TX,Texas,48375,Potter,35.1988,-101.8311,205603,756,polygon,FALSE,TRUE
Portland,Portland,ME,Maine,23005,Cumberland,43.6773,-70.2715,203969,1185,polygon,FALSE,TRUE
Santa Barbara,Santa Barbara,CA,California,6083,Santa Barbara,34.4285,-119.7202,202401,1808,polygon,FALSE,TRUE
Gainesville,Gainesville,FL,Florida,12001,Alachua,29.6804,-82.3458,202335,820,polygon,FALSE,TRUE
Olympia,Olympia,WA,Washington,53067,Thurston,47.0417,-122.8959,200915,1119,polygon,FALSE,TRUE
Frisco,Frisco,TX,Texas,48085,Collin,33.1555,-96.8215,200490,1136,polygon,FALSE,TRUE
Yonkers,Yonkers,NY,New York,36119,Westchester,40.9466,-73.8674,200370,4295,polygon,FALSE,TRUE
Norwich,Norwich,CT,Connecticut,9011,New London,41.5495,-72.0882,200289,533,polygon,FALSE,TRUE
Spring Valley,Spring Valley,NV,Nevada,32003,Clark,36.0987,-115.2619,199722,2318,polygon,FALSE,FALSE
Glendale,Glendale,CA,California,6037,Los Angeles,34.1818,-118.2468,199303,2525,polygon,FALSE,TRUE
Huntington Beach,Huntington Beach,CA,California,6059,Orange,33.696,-118.0025,199223,2848,polygon,FALSE,TRUE
Deltona,Deltona,FL,Florida,12127,Volusia,28.905,-81.2137,198361,960,polygon,FALSE,TRUE
Aurora,Aurora,IL,Illinois,17089,Kane,41.7637,-88.2901,197757,1696,polygon,FALSE,TRUE
Tempe,Tempe,AZ,Arizona,4013,Maricopa,33.3881,-111.9318,195805,1891,polygon,FALSE,TRUE
Overland Park,Overland Park,KS,Kansas,20091,Johnson,38.887,-94.687,195494,1003,polygon,FALSE,TRUE
Grand Prairie,Grand Prairie,TX,Texas,48113,Dallas,32.6872,-97.0209,194543,1039,polygon,FALSE,TRUE
Sunrise Manor,Sunrise Manor,NV,Nevada,32003,Clark,36.1785,-115.049,192934,2231,polygon,FALSE,FALSE
Waco,Waco,TX,Texas,48309,McLennan,31.5598,-97.1881,192315,605,polygon,FALSE,TRUE
Salinas,Salinas,CA,California,6053,Monterey,36.6884,-121.6317,190972,2562,polygon,FALSE,TRUE
Waterbury,Waterbury,CT,Connecticut,9009,New Haven,41.5583,-73.0361,189614,1456,polygon,FALSE,TRUE
Clarksville,Clarksville,TN,Tennessee,47125,Montgomery,36.5695,-87.342,188746,618,polygon,FALSE,TRUE
Cedar Rapids,Cedar Rapids,IA,Iowa,19113,Linn,41.9665,-91.6782,188038,720,polygon,FALSE,TRUE
Sioux Falls,Sioux Falls,SD,South Dakota,46099,Minnehaha,43.5397,-96.732,187239,907,polygon,FALSE,TRUE
Huntington,Huntington,WV,West Virginia,54011,Cabell,38.4109,-82.4344,186034,1073,polygon,FALSE,TRUE
Ontario,Ontario,CA,California,6071,San Bernardino,34.0393,-117.6064,185010,1429,polygon,FALSE,TRUE
Hagerstown,Hagerstown,MD,Maryland,24043,Washington,39.6401,-77.7217,184755,1272,polygon,FALSE,TRUE
Erie,Erie,PA,Pennsylvania,42049,Erie,42.1168,-80.0733,184484,1926,polygon,FALSE,TRUE
Vancouver,Vancouver,WA,Washington,53011,Clark,45.6366,-122.5967,184463,1461,polygon,FALSE,TRUE
Nampa,Nampa,ID,Idaho,16027,Canyon,43.5845,-116.5631,184428,1167,polygon,FALSE,TRUE
Spartanburg,Spartanburg,SC,South Carolina,45083,Spartanburg,34.9437,-81.9257,182701,730,polygon,FALSE,TRUE
Gastonia,Gastonia,NC,North Carolina,37071,Gaston,35.2494,-81.1853,182581,577,polygon,FALSE,TRUE
Fort Lauderdale,Fort Lauderdale,FL,Florida,12011,Broward,26.1412,-80.1464,182437,2036,polygon,FALSE,TRUE
Lorain,Lorain,OH,Ohio,39093,Lorain,41.4409,-82.184,180279,1041,polygon,FALSE,TRUE
Murfreesboro,Murfreesboro,TN,Tennessee,47149,Rutherford,35.8492,-86.4119,179951,919,polygon,FALSE,TRUE
High Point,High Point,NC,North Carolina,37081,Guilford,35.9907,-79.9938,179913,777,polygon,FALSE,TRUE
Newport News,Newport News,VA,Virginia,51700,Newport News,37.1051,-76.5185,179225,1002,polygon,FALSE,TRUE
Rancho Cucamonga,Rancho Cucamonga,CA,California,6071,San Bernardino,34.1248,-117.5666,177603,1709,polygon,FALSE,TRUE
Hemet,Hemet,CA,California,6065,Riverside,33.7341,-116.9969,177253,1125,polygon,FALSE,TRUE
Santa Cruz,Santa Cruz,CA,California,6087,Santa Cruz,36.9789,-122.0346,176428,1957,polygon,FALSE,TRUE
Danbury,Danbury,CT,Connecticut,9001,Fairfield,41.4016,-73.471,176030,779,polygon,FALSE,TRUE
Peoria,Peoria,AZ,Arizona,4013,Maricopa,33.7844,-112.2989,175961,386,polygon,FALSE,TRUE
Oceanside,Oceanside,CA,California,6073,San Diego,33.2247,-117.3083,175742,1644,polygon,FALSE,TRUE
Elk Grove,Elk Grove,CA,California,6067,Sacramento,38.416,-121.3842,174775,1605,polygon,FALSE,TRUE
Pembroke Pines,Pembroke Pines,FL,Florida,12011,Broward,26.0128,-80.3382,173591,2051,polygon,FALSE,TRUE
Vallejo,Vallejo,CA,California,6095,Solano,38.1133,-122.2358,173256,1524,polygon,FALSE,TRUE
Garden Grove,Garden Grove,CA,California,6059,Orange,33.7787,-117.9601,171644,3690,polygon,FALSE,TRUE
Medford,Medford,OR,Oregon,41029,Jackson,42.3372,-122.8537,170876,1243,polygon,FALSE,TRUE
Cary,Cary,NC,North Carolina,37183,Wake,35.782,-78.8191,170282,1119,polygon,FALSE,TRUE
Marysville,Marysville,WA,Washington,53061,Snohomish,48.0809,-122.1561,170009,1308,polygon,FALSE,TRUE
Corona,Corona,CA,California,6065,Riverside,33.8616,-117.5649,169868,1640,polygon,FALSE,TRUE
Ocala,Ocala,FL,Florida,12083,Marion,29.178,-82.1511,169383,496,polygon,FALSE,TRUE
Fredericksburg,Fredericksburg,VA,Virginia,51630,Fredericksburg,38.2992,-77.4872,168909,1072,polygon,FALSE,TRUE
Gainesville,Gainesville,GA,Georgia,13139,Hall,34.2903,-83.8301,167371,506,polygon,FALSE,TRUE
Bayamón,Bayamon,PR,Puerto Rico,72021,Bayamón,18.3793,-66.1635,165383,2366,polygon,FALSE,FALSE
Enterprise,Enterprise,NV,Nevada,32003,Clark,36.0164,-115.2208,164314,1240,polygon,FALSE,FALSE
Manchester,Manchester,NH,New Hampshire,33011,Hillsborough,42.9848,-71.4447,162877,1315,polygon,FALSE,TRUE
Champaign,Champaign,IL,Illinois,17019,Champaign,40.1144,-88.2735,159443,1503,polygon,FALSE,TRUE
Alexandria,Alexandria,VA,Virginia,51510,Alexandria,38.8185,-77.0861,159428,4121,polygon,FALSE,TRUE
Hayward,Hayward,CA,California,6001,Alameda,37.6328,-122.0772,159203,1349,polygon,FALSE,TRUE
Springfield,Springfield,IL,Illinois,17167,Sangamon,39.771,-89.6538,158509,723,polygon,FALSE,TRUE
Lakewood,Lakewood,CO,Colorado,8059,Jefferson,39.6977,-105.1168,157935,1416,polygon,FALSE,TRUE
Lafayette,Lafayette,IN,Indiana,18157,Tippecanoe,40.399,-86.8594,157820,942,polygon,FALSE,TRUE
Frederick,Frederick,MD,Maryland,24021,Frederick,39.4336,-77.4141,156787,1172,polygon,FALSE,TRUE
Lake Charles,Lake Charles,LA,Louisiana,22019,Calcasieu,30.2012,-93.2122,156181,674,polygon,FALSE,TRUE
Odessa,Odessa,TX,Texas,48135,Ector,31.8831,-102.3406,155998,1052,polygon,FALSE,TRUE
Tuscaloosa,Tuscaloosa,AL,Alabama,1125,Tuscaloosa,33.2348,-87.5267,155499,631,polygon,FALSE,TRUE
Warner Robins,Warner Robins,GA,Georgia,13153,Houston,32.597,-83.6529,155140,805,polygon,FALSE,TRUE
Palmdale,Palmdale,CA,California,6037,Los Angeles,34.5944,-118.1057,155079,564,polygon,FALSE,TRUE
Hollywood,Hollywood,FL,Florida,12011,Broward,26.0294,-80.1679,154817,2192,polygon,FALSE,TRUE
Midland,Midland,TX,Texas,48329,Midland,32.0249,-102.1137,154793,758,polygon,FALSE,TRUE
Leesburg,Leesburg,FL,Florida,12069,Lake,28.7657,-81.8996,154574,249,polygon,FALSE,TRUE
Port Arthur,Port Arthur,TX,Texas,48245,Jefferson,29.8554,-93.9264,154468,272,polygon,FALSE,TRUE
Muskegon,Muskegon,MI,Michigan,26121,Muskegon,43.2281,-86.2563,153565,998,polygon,FALSE,TRUE
Macon,Macon,GA,Georgia,13021,Bibb,32.8065,-83.6974,153159,237,polygon,FALSE,TRUE
Kansas City,Kansas City,KS,Kansas,20209,Wyandotte,39.1234,-94.7443,152960,473,polygon,FALSE,TRUE
Sunnyvale,Sunnyvale,CA,California,6085,Santa Clara,37.3836,-122.0256,152703,2676,polygon,FALSE,TRUE
Pomona,Pomona,CA,California,6037,Los Angeles,34.0585,-117.7626,151691,2548,polygon,FALSE,TRUE
Escondido,Escondido,CA,California,6073,San Diego,33.1347,-117.0722,151625,1568,polygon,FALSE,TRUE
Pasadena,Pasadena,TX,Texas,48201,Harris,29.6583,-95.1499,151227,1339,polygon,FALSE,TRUE
New Bedford,New Bedford,MA,Massachusetts,25005,Bristol,41.6697,-70.9428,149910,1840,polygon,FALSE,TRUE
Fairfield,Fairfield,CA,California,6095,Solano,38.2592,-122.0324,148683,1097,polygon,FALSE,TRUE
Naperville,Naperville,IL,Illinois,17043,DuPage,41.7483,-88.1657,148449,1476,polygon,FALSE,TRUE
Bellevue,Bellevue,WA,Washington,53033,King,47.5951,-122.1535,148164,1709,polygon,FALSE,TRUE
Binghamton,Binghamton,NY,New York,36007,Broome,42.1014,-75.9093,148145,1635,polygon,FALSE,TRUE
Elkhart,Elkhart,IN,Indiana,18039,Elkhart,41.6916,-85.9628,147567,734,polygon,FALSE,TRUE
Topeka,Topeka,KS,Kansas,20177,Shawnee,39.0346,-95.6955,147458,787,polygon,FALSE,TRUE
Joliet,Joliet,IL,Illinois,17197,Will,41.5189,-88.1499,147344,886,polygon,FALSE,TRUE
Beaumont,Beaumont,TX,Texas,48245,Jefferson,30.0849,-94.1451,146091,547,polygon,FALSE,TRUE
Paterson,Paterson,NJ,New Jersey,34031,Passaic,40.9147,-74.1624,145233,6665,polygon,FALSE,TRUE
Merced,Merced,CA,California,6047,Merced,37.3057,-120.4778,145149,1390,polygon,FALSE,TRUE
Pueblo,Pueblo,CO,Colorado,8101,Pueblo,38.2705,-104.6112,143932,789,polygon,FALSE,TRUE
Tyler,Tyler,TX,Texas,48423,Smith,32.3184,-95.3062,143796,718,polygon,FALSE,TRUE
Torrance,Torrance,CA,California,6037,Los Angeles,33.8346,-118.3417,143592,2701,polygon,FALSE,TRUE
Metairie,Metairie,LA,Louisiana,22051,Jefferson,29.9977,-90.178,143481,2381,polygon,FALSE,FALSE
Yuma,Yuma,AZ,Arizona,4027,Yuma,32.5992,-114.5488,142847,313,polygon,FALSE,TRUE
Surprise,Surprise,AZ,Arizona,4013,Maricopa,33.68,-112.4524,141664,506,polygon,FALSE,TRUE
Columbia,Columbia,MO,Missouri,29019,Boone,38.9478,-92.3256,141645,725,polygon,FALSE,TRUE
Athens,Athens,GA,Georgia,13059,Clarke,33.9508,-83.3689,141532,421,polygon,FALSE,TRUE
Roseville,Roseville,CA,California,6061,Placer,38.7703,-121.3196,141500,1239,polygon,FALSE,TRUE
Thornton,Thornton,CO,Colorado,8001,Adams,39.9197,-104.9438,141464,1521,polygon,FALSE,TRUE
Miramar,Miramar,FL,Florida,12011,Broward,25.9773,-80.3351,141191,1889,polygon,FALSE,TRUE
Pasadena,Pasadena,CA,California,6037,Los Angeles,34.1597,-118.139,141029,2371,polygon,FALSE,TRUE
Mesquite,Mesquite,TX,Texas,48113,Dallas,32.7623,-96.5889,140937,1151,polygon,FALSE,TRUE
Santa Maria,Santa Maria,CA,California,6083,Santa Barbara,34.9334,-120.4432,140545,1815,polygon,FALSE,TRUE
Olathe,Olathe,KS,Kansas,20091,Johnson,38.8832,-94.8198,140545,880,polygon,FALSE,TRUE
Houma,Houma,LA,Louisiana,22109,Terrebonne,29.5799,-90.7058,140469,874,polygon,FALSE,TRUE
Carolina,Carolina,PR,Puerto Rico,72031,Carolina,18.4054,-65.9792,140072,2611,polygon,FALSE,FALSE
Carrollton,Carrollton,TX,Texas,48113,Dallas,32.989,-96.8999,139248,1466,polygon,FALSE,TRUE
Grand Junction,Grand Junction,CO,Colorado,8077,Mesa,39.0876,-108.5673,139143,621,polygon,FALSE,TRUE
Charleston,Charleston,WV,West Virginia,54039,Kanawha,38.3484,-81.6323,138706,570,polygon,FALSE,TRUE
Orange,Orange,CA,California,6059,Orange,33.8038,-117.8218,138669,2086,polygon,FALSE,TRUE
Fullerton,Fullerton,CA,California,6059,Orange,33.8841,-117.9279,138632,2386,polygon,FALSE,TRUE
Greeley,Greeley,CO,Colorado,8123,Weld,40.4151,-104.7706,137810,858,polygon,FALSE,TRUE
Las Cruces,Las Cruces,NM,New Mexico,35013,Doña Ana,32.3265,-106.7892,136254,519,polygon,FALSE,TRUE
Panama City,Panama City,FL,Florida,12005,Bay,30.1995,-85.6004,136133,382,polygon,FALSE,TRUE
Harlingen,Harlingen,TX,Texas,48061,Cameron,26.1917,-97.6976,136037,626,polygon,FALSE,TRUE
West Valley City,West Valley City,UT,Utah,49035,Salt Lake,40.6889,-112.0115,135248,1472,polygon,FALSE,TRUE
Hampton,Hampton,VA,Virginia,51650,Hampton,37.0551,-76.363,134510,1009,polygon,FALSE,TRUE
Warren,Warren,MI,Michigan,26099,Macomb,42.4934,-83.027,133943,1505,polygon,FALSE,TRUE
Mauldin,Mauldin,SC,South Carolina,45045,Greenville,34.7849,-82.3005,133872,899,polygon,FALSE,TRUE
Bloomington,Bloomington,IL,Illinois,17113,McLean,40.4757,-88.9703,133846,1100,polygon,FALSE,TRUE
Coral Springs,Coral Springs,FL,Florida,12011,Broward,26.2702,-80.2591,133759,2258,polygon,FALSE,TRUE
Round Rock,Round Rock,TX,Texas,48491,Williamson,30.5254,-97.666,133372,1421,polygon,FALSE,TRUE
Yakima,Yakima,WA,Washington,53077,Yakima,46.5923,-120.5496,133191,1300,polygon,FALSE,TRUE
Sterling Heights,Sterling Heights,MI,Michigan,26099,Macomb,42.5809,-83.0305,132438,1403,polygon,FALSE,TRUE
Kent,Kent,WA,Washington,53033,King,47.3887,-122.2129,132319,1513,polygon,FALSE,TRUE
Burlington,Burlington,NC,North Carolina,37001,Alamance,36.0758,-79.4686,131043,707,polygon,FALSE,TRUE
Bellingham,Bellingham,WA,Washington,53073,Whatcom,48.7543,-122.4687,130641,1287,polygon,FALSE,TRUE
Santa Clara,Santa Clara,CA,California,6085,Santa Clara,37.3645,-121.968,130365,2761,polygon,FALSE,TRUE
Racine,Racine,WI,Wisconsin,55101,Racine,42.7274,-87.8135,130142,1915,polygon,FALSE,TRUE
Greenville,Greenville,NC,North Carolina,37147,Pitt,35.5956,-77.3768,130118,1012,polygon,FALSE,TRUE
Stamford,Stamford,CT,Connecticut,9001,Fairfield,41.1035,-73.5583,129638,1330,polygon,FALSE,TRUE
Elizabeth,Elizabeth,NJ,New Jersey,34039,Union,40.6657,-74.1912,129216,4049,polygon,FALSE,TRUE
Johnson City,Johnson City,TN,Tennessee,47179,Washington,36.3406,-82.3803,127571,599,polygon,FALSE,TRUE
Lynchburg,Lynchburg,VA,Virginia,51680,Lynchburg,37.4003,-79.1909,126814,647,polygon,FALSE,TRUE
Simi Valley,Simi Valley,CA,California,6111,Ventura,34.2663,-118.749,126589,1167,polygon,FALSE,TRUE
Fort Smith,Fort Smith,AR,Arkansas,5131,Sebastian,35.3493,-94.3695,125354,536,polygon,FALSE,TRUE
Kenosha,Kenosha,WI,Wisconsin,55059,Kenosha,42.5864,-87.8765,124972,1378,polygon,FALSE,TRUE
South Lyon,South Lyon,MI,Michigan,26125,Oakland,42.4614,-83.6526,124694,1219,polygon,FALSE,TRUE
Boulder,Boulder,CO,Colorado,8013,Boulder,40.0249,-105.2523,124345,1551,polygon,FALSE,TRUE
Pearland,Pearland,TX,Texas,48039,Brazoria,29.5585,-95.3215,122460,981,polygon,FALSE,TRUE
Berkeley,Berkeley,CA,California,6001,Alameda,37.8723,-122.276,121363,4473,polygon,FALSE,TRUE
Richardson,Richardson,TX,Texas,48113,Dallas,32.9717,-96.7093,121323,1639,polygon,FALSE,TRUE
Redding,Redding,CA,California,6089,Shasta,40.5698,-122.365,121313,599,polygon,FALSE,TRUE
Arvada,Arvada,CO,Colorado,8059,Jefferson,39.8321,-105.1511,121272,1207,polygon,FALSE,TRUE
St. George,St. George,UT,Utah,49053,Washington,37.077,-113.577,120899,449,polygon,FALSE,TRUE
Billings,Billings,MT,Montana,30111,Yellowstone,45.7891,-108.5524,120728,948,polygon,FALSE,TRUE
Yuba City,Yuba City,CA,California,6101,Sutter,39.1357,-121.6381,120456,1736,polygon,FALSE,TRUE
Rochester,Rochester,MN,Minnesota,27109,Olmsted,44.0151,-92.4778,119942,831,polygon,FALSE,TRUE
East Los Angeles,East Los Angeles,CA,California,6037,Los Angeles,34.0326,-118.1691,119827,6212,polygon,FALSE,FALSE
Leominster,Leominster,MA,Massachusetts,25027,Worcester,42.5209,-71.7717,119690,558,polygon,FALSE,TRUE
Kingsport,Kingsport,TN,Tennessee,47163,Sullivan,36.5224,-82.5453,119666,397,polygon,FALSE,TRUE
Duluth,Duluth,MN,Minnesota,27137,St. Louis,46.7756,-92.1392,119476,461,polygon,FALSE,TRUE
Lehigh Acres,Lehigh Acres,FL,Florida,12071,Lee,26.612,-81.6388,119205,496,polygon,FALSE,FALSE
Rock Hill,Rock Hill,SC,South Carolina,45091,York,34.9416,-81.0244,119105,750,polygon,FALSE,TRUE
Gilroy,Gilroy,CA,California,6085,Santa Clara,37.0047,-121.5855,118993,1378,polygon,FALSE,TRUE
Cambridge,Cambridge,MA,Massachusetts,25017,Middlesex,42.3759,-71.1185,118927,7182,polygon,FALSE,TRUE
Sugar Land,Sugar Land,TX,Texas,48157,Fort Bend,29.5935,-95.6357,118488,1130,polygon,FALSE,TRUE
Texas City,Texas City,TX,Texas,48167,Galveston,29.4128,-94.9658,118169,300,polygon,FALSE,TRUE
Iowa City,Iowa City,IA,Iowa,19103,Johnson,41.6559,-91.5303,118041,1133,polygon,FALSE,TRUE
Saginaw,Saginaw,MI,Michigan,26145,Saginaw,43.4199,-83.9501,117958,1087,polygon,FALSE,TRUE
Chico,Chico,CA,California,6007,Butte,39.7575,-121.8152,117668,1191,polygon,FALSE,TRUE
Dover,Dover,DE,Delaware,10001,Kent,39.161,-75.5203,117282,622,polygon,FALSE,TRUE
Norman,Norman,OK,Oklahoma,40027,Cleveland,35.2335,-97.3471,116973,269,polygon,FALSE,TRUE
Clearwater,Clearwater,FL,Florida,12103,Pinellas,27.9789,-82.7622,116946,1731,polygon,FALSE,TRUE
Coeur d'Alene,Coeur d'Alene,ID,Idaho,16055,Kootenai,47.7041,-116.7935,116834,1260,polygon,FALSE,TRUE
Ponce,Ponce,PR,Puerto Rico,72113,Ponce,18.012,-66.6198,116796,1469,polygon,FALSE,FALSE
Seaside,Seaside,CA,California,6053,Monterey,36.6224,-121.8191,116720,1410,polygon,FALSE,TRUE
Independence,Independence,MO,Missouri,29095,Jackson,39.0871,-94.3501,116672,577,polygon,FALSE,TRUE
West Jordan,West Jordan,UT,Utah,49035,Salt Lake,40.6024,-112.0008,116480,1391,polygon,FALSE,TRUE
Abilene,Abilene,TX,Texas,48441,Taylor,32.4543,-99.7384,116412,446,polygon,FALSE,TRUE
Bloomington,Bloomington,IN,Indiana,18105,Monroe,39.1637,-86.5257,115884,1424,polygon,FALSE,TRUE
El Monte,El Monte,CA,California,6037,Los Angeles,34.0739,-118.0291,115487,4663,polygon,FALSE,TRUE
Carlsbad,Carlsbad,CA,California,6073,San Diego,33.1247,-117.2837,115382,1180,polygon,FALSE,TRUE
North Charleston,North Charleston,SC,South Carolina,45019,Charleston,32.9066,-80.0722,115382,574,polygon,FALSE,TRUE
St. Cloud,St. Cloud,MN,Minnesota,27145,Stearns,45.5339,-94.1718,115028,660,polygon,FALSE,TRUE
Temecula,Temecula,CA,California,6065,Riverside,33.4928,-117.1315,114761,1188,polygon,FALSE,TRUE
Clovis,Clovis,CA,California,6019,Fresno,36.8278,-119.6831,114584,1741,polygon,FALSE,TRUE
Meridian,Meridian,ID,Idaho,16001,Ada,43.6112,-116.3968,114161,1297,polygon,FALSE,TRUE
Brandon,Brandon,FL,Florida,12057,Hillsborough,27.9367,-82.3,113279,1319,polygon,FALSE,FALSE
Westminster,Westminster,CO,Colorado,8001,Adams,39.8837,-105.0624,113166,1383,polygon,FALSE,TRUE
Costa Mesa,Costa Mesa,CA,California,6059,Orange,33.6667,-117.9135,113003,2762,polygon,FALSE,TRUE
Monroe,Monroe,LA,Louisiana,22073,Ouachita,32.5183,-92.0774,112891,623,polygon,FALSE,TRUE
Utica,Utica,NY,New York,36065,Oneida,43.0961,-75.226,112650,1376,polygon,FALSE,TRUE
Pompano Beach,Pompano Beach,FL,Florida,12011,Broward,26.2428,-80.1312,112118,1802,polygon,FALSE,TRUE
West Palm Beach,West Palm Beach,FL,Florida,12099,Palm Beach,26.7468,-80.1316,111955,803,polygon,FALSE,TRUE
Waterloo,Waterloo,IA,Iowa,19013,Black Hawk,42.492,-92.3522,111631,423,polygon,FALSE,TRUE
Everett,Everett,WA,Washington,53061,Snohomish,47.9525,-122.1669,111475,1296,polygon,FALSE,TRUE
El Centro,El Centro,CA,California,6025,Imperial,32.7867,-115.5586,111425,1478,polygon,FALSE,TRUE
Santa Fe,Santa Fe,NM,New Mexico,35049,Santa Fe,35.6619,-105.9819,111269,625,polygon,FALSE,TRUE
Downey,Downey,CA,California,6037,Los Angeles,33.9379,-118.1312,111126,3457,polygon,FALSE,TRUE
Lowell,Lowell,MA,Massachusetts,25017,Middlesex,42.6389,-71.3217,110997,3149,polygon,FALSE,TRUE
Centennial,Centennial,CO,Colorado,8005,Arapahoe,39.5926,-104.8674,110937,1448,polygon,FALSE,TRUE
Elgin,Elgin,IL,Illinois,17089,Kane,42.0385,-88.3229,110849,1141,polygon,FALSE,TRUE
Richmond,Richmond,CA,California,6013,Contra Costa,37.9477,-122.339,110567,1420,polygon,FALSE,TRUE
Broken Arrow,Broken Arrow,OK,Oklahoma,40143,Tulsa,36.0365,-95.7809,110198,688,polygon,FALSE,TRUE
Miami Gardens,Miami Gardens,FL,Florida,12086,Miami-Dade,25.9433,-80.2426,110001,2329,polygon,FALSE,TRUE
The Woodlands,The Woodlands,TX,Texas,48339,Montgomery,30.1738,-95.5134,109843,981,polygon,FALSE,FALSE
Bend,Bend,OR,Oregon,41017,Deschutes,44.0562,-121.3087,109802,1171,polygon,FALSE,TRUE
Burlington,Burlington,VT,Vermont,50007,Chittenden,44.4877,-73.2314,109763,1604,polygon,FALSE,TRUE
Jurupa Valley,Jurupa Valley,CA,California,6065,Riverside,34.001,-117.4705,109527,984,polygon,FALSE,TRUE
Sandy Springs,Sandy Springs,GA,Georgia,13121,Fulton,33.9366,-84.3703,109452,1122,polygon,FALSE,TRUE
Gresham,Gresham,OR,Oregon,41051,Multnomah,45.5023,-122.4413,109381,1808,polygon,FALSE,TRUE
Lewisville,Lewisville,TX,Texas,48121,Denton,33.0452,-96.9823,109212,1148,polygon,FALSE,TRUE
Hillsboro,Hillsboro,OR,Oregon,41067,Washington,45.5272,-122.9361,109128,1640,polygon,FALSE,TRUE
San Buenaventura,San Buenaventura,CA,California,6111,Ventura,34.2741,-119.2314,109106,1925,polygon,FALSE,TRUE
Jacksonville,Jacksonville,NC,North Carolina,37133,Onslow,34.7288,-77.3941,108856,574,polygon,FALSE,TRUE
Pottstown,Pottstown,PA,Pennsylvania,42091,Montgomery,40.2507,-75.6444,108758,1798,polygon,FALSE,TRUE
Inglewood,Inglewood,CA,California,6037,Los Angeles,33.9566,-118.3444,108151,4604,polygon,FALSE,TRUE
Spring Hill,Spring Hill,FL,Florida,12053,Hernando,28.4797,-82.53,107855,695,polygon,FALSE,FALSE
League City,League City,TX,Texas,48167,Galveston,29.4873,-95.1087,107536,809,polygon,FALSE,TRUE
Eau Claire,Eau Claire,WI,Wisconsin,55035,Eau Claire,44.8199,-91.4949,107404,812,polygon,FALSE,TRUE
Turlock,Turlock,CA,California,6099,Stanislaus,37.5053,-120.8588,107317,1679,polygon,FALSE,TRUE
Temple,Temple,TX,Texas,48027,Bell,31.1076,-97.3894,107258,429,polygon,FALSE,TRUE
Sioux City,Sioux City,IA,Iowa,19193,Woodbury,42.4959,-96.3901,106455,545,polygon,FALSE,TRUE
Salisbury,Salisbury,MD,Maryland,24045,Wicomico,38.3756,-75.5867,106447,927,polygon,FALSE,TRUE
Davie,Davie,FL,Florida,12011,Broward,26.0789,-80.287,106306,1175,polygon,FALSE,TRUE
Daly City,Daly City,CA,California,6081,San Mateo,37.6862,-122.4685,106280,5370,polygon,FALSE,TRUE
Allen,Allen,TX,Texas,48085,Collin,33.1088,-96.6735,105623,1544,polygon,FALSE,TRUE
Highlands Ranch,Highlands Ranch,CO,Colorado,8035,Douglas,39.5419,-104.9708,105147,1672,polygon,FALSE,FALSE
West Covina,West Covina,CA,California,6037,Los Angeles,34.0555,-117.9112,105101,2529,polygon,FALSE,TRUE
Sparks,Sparks,NV,Nevada,32031,Washoe,39.5729,-119.7157,105006,1131,polygon,FALSE,TRUE
San Mateo,San Mateo,CA,California,6081,San Mateo,37.5521,-122.3122,104430,3312,polygon,FALSE,TRUE
Norwalk,Norwalk,CA,California,6037,Los Angeles,33.9069,-118.0829,103949,4133,polygon,FALSE,TRUE
Columbia,Columbia,MD,Maryland,24027,Howard,39.2004,-76.859,103663,1253,polygon,FALSE,FALSE
Rialto,Rialto,CA,California,6071,San Bernardino,34.1174,-117.3894,103526,1665,polygon,FALSE,TRUE
Manteca,Manteca,CA,California,6077,San Joaquin,37.7927,-121.2264,103420,1498,polygon,FALSE,TRUE
El Cajon,El Cajon,CA,California,6073,San Diego,32.8017,-116.9605,102708,2732,polygon,FALSE,TRUE
Burbank,Burbank,CA,California,6037,Los Angeles,34.1879,-118.3235,102511,2285,polygon,FALSE,TRUE
Longmont,Longmont,CO,Colorado,8013,Boulder,40.1686,-105.1005,102474,1306,polygon,FALSE,TRUE
Renton,Renton,WA,Washington,53033,King,47.4784,-122.1919,101751,1676,polygon,FALSE,TRUE
Vista,Vista,CA,California,6073,San Diego,33.1896,-117.2386,101638,2093,polygon,FALSE,TRUE
Logan,Logan,UT,Utah,49005,Cache,41.74,-111.8419,101616,1126,polygon,FALSE,TRUE
Prescott Valley,Prescott Valley,AZ,Arizona,4025,Yavapai,34.5983,-112.3176,101539,439,polygon,FALSE,TRUE
Vacaville,Vacaville,CA,California,6095,Solano,38.359,-121.968,101444,1330,polygon,FALSE,TRUE
Edinburg,Edinburg,TX,Texas,48215,Hidalgo,26.3197,-98.1596,101170,873,polygon,FALSE,TRUE
Carmel,Carmel,IN,Indiana,18057,Hamilton,39.965,-86.146,101068,795,polygon,FALSE,TRUE
Spokane Valley,Spokane Valley,WA,Washington,53063,Spokane,47.6626,-117.2346,101060,1034,polygon,FALSE,TRUE
San Angelo,San Angelo,TX,Texas,48451,Tom Green,31.4424,-100.4506,100773,653,polygon,FALSE,TRUE
La Crosse,La Crosse,WI,Wisconsin,55063,La Crosse,43.824,-91.2268,100693,911,polygon,FALSE,TRUE
Arden-Arcade,Arden-Arcade,CA,California,6067,Sacramento,38.6034,-121.381,100548,2184,polygon,FALSE,TRUE
Idaho Falls,Idaho Falls,ID,Idaho,16019,Bonneville,43.4872,-112.0362,100442,1011,polygon,FALSE,TRUE
Holland,Holland,MI,Michigan,26139,Ottawa,42.7677,-86.0985,100432,768,polygon,FALSE,TRUE
Charlottesville,Charlottesville,VA,Virginia,51540,Charlottesville,38.0375,-78.4855,100416,1781,polygon,FALSE,TRUE
Longview,Longview,TX,Texas,48183,Gregg,32.5193,-94.7621,100330,565,polygon,FALSE,TRUE
Tracy,Tracy,CA,California,6077,San Joaquin,37.7269,-121.4522,100049,1412,polygon,FALSE,TRUE
Boca Raton,Boca Raton,FL,Florida,12099,Palm Beach,26.3752,-80.108,99805,1320,polygon,FALSE,TRUE
Lafayette,Lafayette,CO,Colorado,8013,Boulder,39.9949,-105.0997,99645,1257,polygon,FALSE,TRUE
Wichita Falls,Wichita Falls,TX,Texas,48485,Wichita,33.9072,-98.5291,99557,561,polygon,FALSE,TRUE
Rio Rancho,Rio Rancho,NM,New Mexico,35043,Sandoval,35.2872,-106.6981,99178,370,polygon,FALSE,TRUE
South Fulton,South Fulton,GA,Georgia,13121,Fulton,33.6269,-84.5802,99155,451,polygon,FALSE,TRUE
Beaverton,Beaverton,OR,Oregon,41067,Washington,45.4779,-122.8168,99037,1952,polygon,FALSE,TRUE
Lawrence,Lawrence,KS,Kansas,20045,Douglas,38.9597,-95.2641,98648,1110,polygon,FALSE,TRUE
Bismarck,Bismarck,ND,North Dakota,38015,Burleigh,46.8144,-100.7694,98345,827,polygon,FALSE,TRUE
Orem,Orem,UT,Utah,49049,Utah,40.2983,-111.6992,97828,2044,polygon,FALSE,TRUE
Middletown,Middletown,OH,Ohio,39017,Butler,39.5032,-84.366,97730,720,polygon,FALSE,TRUE
San Marcos,San Marcos,CA,California,6073,San Diego,33.135,-117.1744,96664,1532,polygon,FALSE,TRUE
Sandy,Sandy,UT,Utah,49035,Salt Lake,40.571,-111.8505,96380,1544,polygon,FALSE,TRUE
Federal Way,Federal Way,WA,Washington,53033,King,47.3091,-122.3358,96289,1667,polygon,FALSE,TRUE
Mandeville,Mandeville,LA,Louisiana,22103,St. Tammany,30.3751,-90.0904,95968,676,polygon,FALSE,TRUE
Hesperia,Hesperia,CA,California,6071,San Bernardino,34.3975,-117.3147,95750,508,polygon,FALSE,TRUE
Brockton,Brockton,MA,Massachusetts,25023,Plymouth,42.0821,-71.0242,95708,1732,polygon,FALSE,TRUE
Compton,Compton,CA,California,6037,Los Angeles,33.893,-118.2275,95605,3680,polygon,FALSE,TRUE
Fishers,Fishers,IN,Indiana,18057,Hamilton,39.9589,-85.9661,95310,1037,polygon,FALSE,TRUE
Sunrise,Sunrise,FL,Florida,12011,Broward,26.1547,-80.2997,95166,2270,polygon,FALSE,TRUE
Bowling Green,Bowling Green,KY,Kentucky,21227,Warren,36.9719,-86.4373,95135,690,polygon,FALSE,TRUE
Roswell,Roswell,GA,Georgia,13121,Fulton,34.0391,-84.3513,94763,898,polygon,FALSE,TRUE
Menifee,Menifee,CA,California,6065,Riverside,33.6909,-117.1849,94756,787,polygon,FALSE,TRUE
Plantation,Plantation,FL,Florida,12011,Broward,26.126,-80.2617,94580,1685,polygon,FALSE,TRUE
Dover,Dover,NH,New Hampshire,33017,Strafford,43.1887,-70.8845,94563,464,polygon,FALSE,TRUE
Quincy,Quincy,MA,Massachusetts,25021,Norfolk,42.2516,-71.0183,94470,2200,polygon,FALSE,TRUE
Portsmouth,Portsmouth,VA,Virginia,51740,Portsmouth,36.8468,-76.354,94398,1094,polygon,FALSE,TRUE
Chino,Chino,CA,California,6071,San Bernardino,33.9836,-117.6654,94371,1229,polygon,FALSE,TRUE
Lynn,Lynn,MA,Massachusetts,25009,Essex,42.4779,-70.9663,94299,3388,polygon,FALSE,TRUE
Edmond,Edmond,OK,Oklahoma,40109,Oklahoma,35.6689,-97.4159,94054,428,polygon,FALSE,TRUE
Hanford,Hanford,CA,California,6031,Kings,36.3274,-119.6549,94028,1280,polygon,FALSE,TRUE
Dearborn,Dearborn,MI,Michigan,26163,Wayne,42.3127,-83.2129,93932,1496,polygon,FALSE,TRUE
Livonia,Livonia,MI,Michigan,26163,Wayne,42.3972,-83.3733,93665,1013,polygon,FALSE,TRUE
South Gate,South Gate,CA,California,6037,Los Angeles,33.9448,-118.1926,93444,4985,polygon,FALSE,TRUE
Vineland,Vineland,NJ,New Jersey,34011,Cumberland,39.4653,-74.9981,93239,335,polygon,FALSE,TRUE
San Tan Valley,San Tan Valley,AZ,Arizona,4021,Pinal,33.1879,-111.5472,93230,981,polygon,FALSE,FALSE
Florence,Florence,SC,South Carolina,45041,Florence,34.1781,-79.7877,93131,657,polygon,FALSE,TRUE
Portsmouth,Portsmouth,NH,New Hampshire,33015,Rockingham,43.058,-70.7826,93069,540,polygon,FALSE,TRUE
Slidell,Slidell,LA,Louisiana,22103,St. Tammany,30.2881,-89.7826,93040,695,polygon,FALSE,TRUE
Kirkland,Kirkland,WA,Washington,53033,King,47.6974,-122.2054,93010,2016,polygon,FALSE,TRUE
Missoula,Missoula,MT,Montana,30063,Missoula,46.875,-114.0214,92895,845,polygon,FALSE,TRUE
Auburn,Auburn,AL,Alabama,1081,Lee,32.6087,-85.4899,92777,425,polygon,FALSE,TRUE
Rapid City,Rapid City,SD,South Dakota,46103,Pennington,44.0716,-103.2204,92664,546,polygon,FALSE,TRUE
Lee's Summit,Lee's Summit,MO,Missouri,29095,Jackson,38.9172,-94.3816,92522,601,polygon,FALSE,TRUE
Terre Haute,Terre Haute,IN,Indiana,18167,Vigo,39.4654,-87.3763,92490,677,polygon,FALSE,TRUE
Suffolk,Suffolk,VA,Virginia,51800,Suffolk,36.6953,-76.6398,92108,89,polygon,FALSE,TRUE
Blacksburg,Blacksburg,VA,Virginia,51121,Montgomery,37.23,-80.4279,91888,865,polygon,FALSE,TRUE
Mount Pleasant,Mount Pleasant,SC,South Carolina,45019,Charleston,32.8538,-79.8204,91684,717,polygon,FALSE,TRUE
Carson,Carson,CA,California,6037,Los Angeles,33.8374,-118.2559,91394,1883,polygon,FALSE,TRUE
Riverview,Riverview,FL,Florida,12057,Hillsborough,27.8227,-82.3023,91190,761,polygon,FALSE,FALSE
Conroe,Conroe,TX,Texas,48339,Montgomery,30.3239,-95.4825,91079,488,polygon,FALSE,TRUE
Livermore,Livermore,CA,California,6001,Alameda,37.6862,-121.7608,90923,1288,polygon,FALSE,TRUE
Germantown,Germantown,MD,Maryland,24031,Montgomery,39.1755,-77.2643,90844,2059,polygon,FALSE,FALSE
Lawton,Lawton,OK,Oklahoma,40031,Comanche,34.6176,-98.4203,90712,441,polygon,FALSE,TRUE
Westminster,Westminster,CA,California,6059,Orange,33.7523,-117.9938,90643,3486,polygon,FALSE,TRUE
Santa Monica,Santa Monica,CA,California,6037,Los Angeles,34.0232,-118.4813,90401,4147,polygon,FALSE,TRUE
New Braunfels,New Braunfels,TX,Texas,48091,Comal,29.6994,-98.1148,90209,770,polygon,FALSE,TRUE
Fall River,Fall River,MA,Massachusetts,25005,Bristol,41.7137,-71.1014,89541,1044,polygon,FALSE,TRUE
Albany,Albany,GA,Georgia,13095,Dougherty,31.5776,-84.1762,89217,505,polygon,FALSE,TRUE
Miami Beach,Miami Beach,FL,Florida,12086,Miami-Dade,25.8171,-80.1396,88885,4461,polygon,FALSE,TRUE
Norwalk,Norwalk,CT,Connecticut,9001,Fairfield,41.1144,-73.4215,88816,1498,polygon,FALSE,TRUE
San Leandro,San Leandro,CA,California,6001,Alameda,37.7071,-122.1601,88815,2570,polygon,FALSE,TRUE
Toms River,Toms River,NJ,New Jersey,34029,Ocean,39.9931,-74.1857,88712,878,polygon,FALSE,FALSE
O'Fallon,O'Fallon,MO,Missouri,29183,St. Charles,38.785,-90.7175,88673,1149,polygon,FALSE,TRUE
Alafaya,Alafaya,FL,Florida,12095,Orange,28.5278,-81.1865,88542,1124,polygon,FALSE,FALSE
Newton,Newton,MA,Massachusetts,25017,Middlesex,42.3316,-71.2085,88414,1914,polygon,FALSE,TRUE
Muncie,Muncie,IN,Indiana,18035,Delaware,40.1989,-85.395,87879,958,polygon,FALSE,TRUE
Citrus Heights,Citrus Heights,CA,California,6067,Sacramento,38.6948,-121.288,87796,2381,polygon,FALSE,TRUE
State College,State College,PA,Pennsylvania,42027,Centre,40.7909,-77.8568,87723,3572,polygon,FALSE,TRUE
Decatur,Decatur,IL,Illinois,17115,Macon,39.8556,-88.9337,87236,645,polygon,FALSE,TRUE
Jackson,Jackson,MI,Michigan,26075,Jackson,42.2431,-84.4037,87110,1153,polygon,FALSE,TRUE
Fort Myers,Fort Myers,FL,Florida,12071,Lee,26.6195,-81.8303,87103,844,polygon,FALSE,TRUE
Goodyear,Goodyear,AZ,Arizona,4013,Maricopa,33.2613,-112.3622,86840,175,polygon,FALSE,TRUE
Dalton,Dalton,GA,Georgia,13313,Whitfield,34.769,-84.9712,86628,632,polygon,FALSE,TRUE
Bryan,Bryan,TX,Texas,48041,Brazos,30.6657,-96.3668,86276,726,polygon,FALSE,TRUE
Waukegan,Waukegan,IL,Illinois,17097,Lake,42.3697,-87.8716,86075,1370,polygon,FALSE,TRUE
Hawthorne,Hawthorne,CA,California,6037,Los Angeles,33.9146,-118.3476,86068,5463,polygon,FALSE,TRUE
Anderson,Anderson,IN,Indiana,18095,Madison,40.0891,-85.6893,85992,508,polygon,FALSE,TRUE
Redwood City,Redwood City,CA,California,6081,San Mateo,37.5026,-122.2252,85925,1721,polygon,FALSE,TRUE
Hoover,Hoover,AL,Alabama,1073,Jefferson,33.3754,-86.8064,85768,691,polygon,FALSE,TRUE
Town 'n' Country,Town 'n' Country,FL,Florida,12057,Hillsborough,28.0108,-82.576,85620,1496,polygon,FALSE,FALSE
Lake Forest,Lake Forest,CA,California,6059,Orange,33.6606,-117.6712,85531,1985,polygon,FALSE,TRUE
Napa,Napa,CA,California,6055,Napa,38.2976,-122.3011,85239,1679,polygon,FALSE,TRUE
Whittier,Whittier,CA,California,6037,Los Angeles,33.9678,-118.0188,85098,2242,polygon,FALSE,TRUE
Clifton,Clifton,NJ,New Jersey,34031,Passaic,40.8631,-74.1575,85052,2913,polygon,FALSE,TRUE
Largo,Largo,FL,Florida,12103,Pinellas,27.9088,-82.7711,84948,1773,polygon,FALSE,TRUE
Bloomington,Bloomington,MN,Minnesota,27053,Hennepin,44.8306,-93.3151,84943,945,polygon,FALSE,TRUE
Johns Creek,Johns Creek,GA,Georgia,13121,Fulton,34.0333,-84.2027,84579,1059,polygon,FALSE,TRUE
Newport Beach,Newport Beach,CA,California,6059,Orange,33.6151,-117.8669,84534,1370,polygon,FALSE,TRUE
Mission,Mission,TX,Texas,48215,Hidalgo,26.2041,-98.3251,84331,916,polygon,FALSE,TRUE
Milpitas,Milpitas,CA,California,6085,Santa Clara,37.4339,-121.8921,84196,2381,polygon,FALSE,TRUE
Troy,Troy,MI,Michigan,26125,Oakland,42.5818,-83.1457,84092,970,polygon,FALSE,TRUE
Madera,Madera,CA,California,6039,Madera,36.9631,-120.0782,84086,1557,polygon,FALSE,TRUE
Joplin,Joplin,MO,Missouri,29097,Jasper,37.0758,-94.5018,84048,515,polygon,FALSE,TRUE
Chino Hills,Chino Hills,CA,California,6071,San Bernardino,33.9508,-117.7253,83853,724,polygon,FALSE,TRUE
Alhambra,Alhambra,CA,California,6037,Los Angeles,34.084,-118.1355,83750,4237,polygon,FALSE,TRUE
Franklin,Franklin,TN,Tennessee,47187,Williamson,35.9216,-86.8525,83097,771,polygon,FALSE,TRUE
Melbourne,Melbourne,FL,Florida,12009,Brevard,28.1085,-80.6627,83029,727,polygon,FALSE,TRUE
Port Huron,Port Huron,MI,Michigan,26147,St. Clair,42.9822,-82.4387,82970,1369,polygon,FALSE,TRUE
Springfield,Springfield,OH,Ohio,39023,Clark,39.9297,-83.7957,82820,883,polygon,FALSE,TRUE
Mountain View,Mountain View,CA,California,6085,Santa Clara,37.4,-122.0796,82739,2664,polygon,FALSE,TRUE
Zephyrhills,Zephyrhills,FL,Florida,12101,Pasco,28.2408,-82.1796,82476,670,polygon,FALSE,TRUE
St. Augustine,St. Augustine,FL,Florida,12109,St. Johns,29.8977,-81.31,82180,629,polygon,FALSE,TRUE
Flagstaff,Flagstaff,AZ,Arizona,4005,Coconino,35.1872,-111.6195,81974,438,polygon,FALSE,TRUE
Buena Park,Buena Park,CA,California,6059,Orange,33.8572,-118.0046,81788,3002,polygon,FALSE,TRUE
Pleasanton,Pleasanton,CA,California,6001,Alameda,37.6663,-121.8805,81777,1307,polygon,FALSE,TRUE
Westland,Westland,MI,Michigan,26163,Wayne,42.3192,-83.3805,81511,1540,polygon,FALSE,TRUE
Auburn,Auburn,WA,Washington,53033,King,47.3039,-122.2108,81464,1063,polygon,FALSE,TRUE
Cranston,Cranston,RI,Rhode Island,44007,Providence,41.7658,-71.4857,81456,1109,polygon,FALSE,TRUE
Somerville,Somerville,MA,Massachusetts,25017,Middlesex,42.3908,-71.1013,81360,7619,polygon,FALSE,TRUE
Folsom,Folsom,CA,California,6067,Sacramento,38.6668,-121.1422,81328,1126,polygon,FALSE,TRUE
Springdale,Springdale,AR,Arkansas,5143,Washington,36.1899,-94.1574,81125,668,polygon,FALSE,TRUE
Deerfield Beach,Deerfield Beach,FL,Florida,12011,Broward,26.305,-80.1277,81066,2093,polygon,FALSE,TRUE
Warwick,Warwick,RI,Rhode Island,44003,Kent,41.7062,-71.4334,81004,893,polygon,FALSE,TRUE
Cicero,Cicero,IL,Illinois,17031,Cook,41.8445,-87.7593,80796,5318,polygon,FALSE,TRUE
Farmington Hills,Farmington Hills,MI,Michigan,26125,Oakland,42.486,-83.3771,80612,935,polygon,FALSE,TRUE
Newark,Newark,OH,Ohio,39089,Licking,40.0705,-82.4251,80451,930,polygon,FALSE,TRUE
Williamsburg,Williamsburg,VA,Virginia,51830,Williamsburg,37.2692,-76.7076,80441,645,polygon,FALSE,TRUE
Brooklyn Park,Brooklyn Park,MN,Minnesota,27053,Hennepin,45.1112,-93.3505,80389,1190,polygon,FALSE,TRUE
Hattiesburg,Hattiesburg,MS,Mississippi,28035,Forrest,31.3074,-89.317,80138,331,polygon,FALSE,TRUE
Alexandria,Alexandria,LA,Louisiana,22079,Rapides,31.2923,-92.4702,80129,625,polygon,FALSE,TRUE
Lawrence,Lawrence,MA,Massachusetts,25009,Essex,42.7003,-71.1626,80028,4458,polygon,FALSE,TRUE
Florence,Florence,AL,Alabama,1077,Lauderdale,34.8303,-87.6654,79964,594,polygon,FALSE,TRUE
Valdosta,Valdosta,GA,Georgia,13185,Lowndes,30.8502,-83.2788,79820,606,polygon,FALSE,TRUE
Plymouth,Plymouth,MN,Minnesota,27053,Hennepin,45.0225,-93.4618,79768,941,polygon,FALSE,TRUE
Silver Spring,Silver Spring,MD,Maryland,24031,Montgomery,39.0028,-77.0207,79750,3905,polygon,FALSE,FALSE
Buckeye,Buckeye,AZ,Arizona,4013,Maricopa,33.4314,-112.6429,79620,78,polygon,FALSE,TRUE
Georgetown,Georgetown,TX,Texas,48491,Williamson,30.6668,-97.6953,79604,560,polygon,FALSE,TRUE
Cheyenne,Cheyenne,WY,Wyoming,56021,Laramie,41.1351,-104.79,79484,771,polygon,FALSE,TRUE
Cedar Park,Cedar Park,TX,Texas,48491,Williamson,30.5106,-97.8196,79462,1207,polygon,FALSE,TRUE
Kokomo,Kokomo,IN,Indiana,18067,Howard,40.464,-86.1277,79351,610,polygon,FALSE,TRUE
Tustin,Tustin,CA,California,6059,Orange,33.7309,-117.8106,79348,2755,polygon,FALSE,TRUE
Lakewood,Lakewood,CA,California,6037,Los Angeles,33.8471,-118.1221,79307,3253,polygon,FALSE,TRUE
Perris,Perris,CA,California,6065,Riverside,33.7899,-117.2233,79291,970,polygon,FALSE,TRUE
St. Joseph,St. Joseph,MO,Missouri,29021,Buchanan,39.7599,-94.821,79161,656,polygon,FALSE,TRUE
Flower Mound,Flower Mound,TX,Texas,48121,Denton,33.0344,-97.1146,79135,728,polygon,FALSE,TRUE
Pharr,Pharr,TX,Texas,48215,Hidalgo,26.1685,-98.1904,79112,1292,polygon,FALSE,TRUE
Atascocita,Atascocita,TX,Texas,48201,Harris,29.9777,-95.1953,79019,1279,polygon,FALSE,FALSE
Alton,Alton,IL,Illinois,17119,Madison,38.9034,-90.1523,78905,652,polygon,FALSE,TRUE
Loveland,Loveland,CO,Colorado,8069,Larimer,40.4166,-105.0623,78877,885,polygon,FALSE,TRUE
Boynton Beach,Boynton Beach,FL,Florida,12099,Palm Beach,26.5281,-80.0811,78679,1880,polygon,FALSE,TRUE
New Rochelle,New Rochelle,NY,New York,36119,Westchester,40.9305,-73.7836,78557,2930,polygon,FALSE,TRUE
Anderson,Anderson,SC,South Carolina,45007,Anderson,34.5211,-82.6479,78512,736,polygon,FALSE,TRUE
Lebanon,Lebanon,PA,Pennsylvania,42075,Lebanon,40.3412,-76.4227,78302,2397,polygon,FALSE,TRUE
Parma,Parma,OH,Ohio,39035,Cuyahoga,41.3843,-81.7286,78103,1506,polygon,FALSE,TRUE
Layton,Layton,UT,Utah,49011,Davis,41.0769,-111.9621,78014,1339,polygon,FALSE,TRUE
Elizabethtown,Elizabethtown,KY,Kentucky,21093,Hardin,37.703,-85.877,78002,437,polygon,FALSE,TRUE
Texarkana,Texarkana,TX,Texas,48037,Bowie,33.4487,-94.0815,77964,482,polygon,FALSE,TRUE
Alameda,Alameda,CA,California,6001,Alameda,37.767,-122.2672,77624,2868,polygon,FALSE,TRUE
The Villages,The Villages,FL,Florida,12119,Sumter,28.9021,-81.9888,77609,956,polygon,FALSE,FALSE
Kankakee,Kankakee,IL,Illinois,17091,Kankakee,41.1019,-87.8643,77429,668,polygon,FALSE,TRUE
Watsonville,Watsonville,CA,California,6087,Santa Cruz,36.9206,-121.7706,77352,3109,polygon,FALSE,TRUE
Porterville,Porterville,CA,California,6107,Tulare,36.0644,-119.0338,77318,1236,polygon,FALSE,TRUE
Baytown,Baytown,TX,Texas,48201,Harris,29.7586,-94.9669,77192,807,polygon,FALSE,TRUE
Upland,Upland,CA,California,6071,San Bernardino,34.1178,-117.6603,77140,1907,polygon,FALSE,TRUE
Davis,Davis,CA,California,6113,Yolo,38.5552,-121.7365,76997,2710,polygon,FALSE,TRUE
Camarillo,Camarillo,CA,California,6111,Ventura,34.223,-119.0322,76931,1371,polygon,FALSE,TRUE
South Jordan,South Jordan,UT,Utah,49035,Salt Lake,40.557,-111.9782,76598,1331,polygon,FALSE,TRUE
Battle Creek,Battle Creek,MI,Michigan,26025,Calhoun,42.2986,-85.2296,76514,463,polygon,FALSE,TRUE
Bellflower,Bellflower,CA,California,6037,Los Angeles,33.888,-118.1271,76435,4822,polygon,FALSE,TRUE
Jonesboro,Jonesboro,AR,Arkansas,5031,Craighead,35.8212,-90.6791,76247,377,polygon,FALSE,TRUE
San Marcos,San Marcos,TX,Texas,48209,Hays,29.8736,-97.9381,76218,732,polygon,FALSE,TRUE
San Ramon,San Ramon,CA,California,6013,Contra Costa,37.7625,-121.9365,75995,1570,polygon,FALSE,TRUE
Lake Jackson,Lake Jackson,TX,Texas,48039,Brazoria,29.0516,-95.4522,75860,532,polygon,FALSE,TRUE
Bethlehem,Bethlehem,PA,Pennsylvania,42095,Northampton,40.6266,-75.3679,75815,1531,polygon,FALSE,TRUE
Wyoming,Wyoming,MI,Michigan,26081,Kent,42.8909,-85.7066,75667,1186,polygon,FALSE,TRUE
Pine Hills,Pine Hills,FL,Florida,12095,Orange,28.5818,-81.4693,75575,2392,polygon,FALSE,FALSE
Oshkosh,Oshkosh,WI,Wisconsin,55139,Winnebago,44.0228,-88.5619,75536,958,polygon,FALSE,TRUE
Hammond,Hammond,IN,Indiana,18089,Lake,41.6169,-87.491,75522,1282,polygon,FALSE,TRUE
Missouri City,Missouri City,TX,Texas,48157,Fort Bend,29.563,-95.5365,75457,1003,polygon,FALSE,TRUE
Centreville,Centreville,VA,Virginia,51059,Fairfax,38.8391,-77.4388,75452,2439,polygon,FALSE,FALSE
Pasco,Pasco,WA,Washington,53021,Franklin,46.2506,-119.1304,75432,858,polygon,FALSE,TRUE
Wheeling,Wheeling,WV,West Virginia,54069,Ohio,40.0752,-80.6951,75392,740,polygon,FALSE,TRUE
Baldwin Park,Baldwin Park,CA,California,6037,Los Angeles,34.0829,-117.9721,75251,4381,polygon,FALSE,TRUE
Rancho Cordova,Rancho Cordova,CA,California,6067,Sacramento,38.574,-121.2523,75087,827,polygon,FALSE,TRUE
Caguas,Caguas,PR,Puerto Rico,72025,Caguas,18.2319,-66.0388,74980,2656,polygon,FALSE,FALSE
Conway,Conway,AR,Arkansas,5045,Faulkner,35.0754,-92.4694,74951,567,polygon,FALSE,TRUE
Gary,Gary,IN,Indiana,18089,Lake,41.5906,-87.3472,74879,581,polygon,FALSE,TRUE
Altoona,Altoona,PA,Pennsylvania,42013,Blair,40.5082,-78.4007,74829,1710,polygon,FALSE,TRUE
Lodi,Lodi,CA,California,6077,San Joaquin,38.1218,-121.2932,74773,1913,polygon,FALSE,TRUE
Arlington Heights,Arlington Heights,IL,Illinois,17031,Cook,42.0955,-87.9825,74760,1738,polygon,FALSE,TRUE
Kendall,Kendall,FL,Florida,12086,Miami-Dade,25.6697,-80.3556,74631,1788,polygon,FALSE,FALSE
Waldorf,Waldorf,MD,Maryland,24017,Charles,38.6085,-76.9195,74587,794,polygon,FALSE,FALSE
Bolingbrook,Bolingbrook,IL,Illinois,17197,Will,41.6903,-88.1019,74545,1169,polygon,FALSE,TRUE
Rochester Hills,Rochester Hills,MI,Michigan,26125,Oakland,42.6645,-83.1563,74516,877,polygon,FALSE,TRUE
Winchester,Winchester,VA,Virginia,51840,Winchester,39.1735,-78.1746,74417,1179,polygon,FALSE,TRUE
Framingham,Framingham,MA,Massachusetts,25017,Middlesex,42.3085,-71.4368,74416,1147,polygon,FALSE,TRUE
Hilton Head Island,Hilton Head Island,SC,South Carolina,45013,Beaufort,32.1896,-80.7499,74139,372,polygon,FALSE,TRUE
Union City,Union City,CA,California,6001,Alameda,37.603,-122.0187,74107,1474,polygon,FALSE,TRUE
Owensboro,Owensboro,KY,Kentucky,21059,Daviess,37.7574,-87.1173,74068,1132,polygon,FALSE,TRUE
Jackson,Jackson,TN,Tennessee,47113,Madison,35.6535,-88.8353,74065,444,polygon,FALSE,TRUE
Cheektowaga,Cheektowaga,NY,New York,36029,Erie,42.9082,-78.7496,74026,1126,polygon,FALSE,FALSE
Cleveland,Cleveland,TN,Tennessee,47011,Bradley,35.1817,-84.8707,73596,648,polygon,FALSE,TRUE
Wausau,Wausau,WI,Wisconsin,55073,Marathon,44.962,-89.6459,73593,774,polygon,FALSE,TRUE
Camden,Camden,NJ,New Jersey,34007,Camden,39.9362,-75.1073,73562,3184,polygon,FALSE,TRUE
Dale City,Dale City,VA,Virginia,51153,Prince William,38.6473,-77.3459,73545,1994,polygon,FALSE,FALSE
Anniston,Anniston,AL,Alabama,1015,Calhoun,33.6712,-85.8136,73501,179,polygon,FALSE,TRUE
Evanston,Evanston,IL,Illinois,17031,Cook,42.0463,-87.6942,73473,3646,polygon,FALSE,TRUE
Apple Valley,Apple Valley,CA,California,6071,San Bernardino,34.5328,-117.2104,73453,378,polygon,FALSE,TRUE
Mansfield,Mansfield,OH,Ohio,39139,Richland,40.7656,-82.5275,73326,583,polygon,FALSE,TRUE
Schaumburg,Schaumburg,IL,Illinois,17031,Cook,42.0307,-88.0838,72887,1457,polygon,FALSE,TRUE
Pocatello,Pocatello,ID,Idaho,16005,Bannock,42.8724,-112.4646,72878,657,polygon,FALSE,TRUE
Woodbury,Woodbury,MN,Minnesota,27163,Washington,44.9056,-92.923,72828,805,polygon,FALSE,TRUE
Southfield,Southfield,MI,Michigan,26125,Oakland,42.4765,-83.2605,72689,1068,polygon,FALSE,TRUE
Maple Grove,Maple Grove,MN,Minnesota,27053,Hennepin,45.1089,-93.4626,72622,860,polygon,FALSE,TRUE
Pittsburg,Pittsburg,CA,California,6013,Contra Costa,38.0182,-121.8964,72588,1588,polygon,FALSE,TRUE
New Britain,New Britain,CT,Connecticut,9003,Hartford,41.6758,-72.7862,72495,2095,polygon,FALSE,TRUE
Morgantown,Morgantown,WV,West Virginia,54061,Monongalia,39.638,-79.9468,72458,1181,polygon,FALSE,TRUE
Mansfield,Mansfield,TX,Texas,48439,Tarrant,32.569,-97.1211,72419,762,polygon,FALSE,TRUE
Hammond,Hammond,LA,Louisiana,22105,Tangipahoa,30.5061,-90.4563,72413,589,polygon,FALSE,TRUE
Dothan,Dothan,AL,Alabama,1069,Houston,31.2335,-85.4069,72396,296,polygon,FALSE,TRUE
Harrisonburg,Harrisonburg,VA,Virginia,51660,Harrisonburg,38.4361,-78.8735,72386,1180,polygon,FALSE,TRUE
Wenatchee,Wenatchee,WA,Washington,53007,Chelan,47.4356,-120.3283,72350,1312,polygon,FALSE,TRUE
Waukesha,Waukesha,WI,Wisconsin,55133,Waukesha,43.0087,-88.2464,72299,1093,polygon,FALSE,TRUE
Ellicott City,Ellicott City,MD,Maryland,24027,Howard,39.2773,-76.8344,72247,930,polygon,FALSE,FALSE
Pawtucket,Pawtucket,RI,Rhode Island,44007,Providence,41.8744,-71.3743,72117,3212,polygon,FALSE,TRUE
Redmond,Redmond,WA,Washington,53033,King,47.6762,-122.1169,71929,1676,polygon,FALSE,TRUE
Lauderhill,Lauderhill,FL,Florida,12011,Broward,26.1605,-80.2242,71868,3256,polygon,FALSE,TRUE
Sumter,Sumter,SC,South Carolina,45085,Sumter,33.9392,-80.393,71518,469,polygon,FALSE,TRUE
Redlands,Redlands,CA,California,6071,San Bernardino,34.0511,-117.1712,71513,770,polygon,FALSE,TRUE
Daphne,Daphne,AL,Alabama,1003,Baldwin,30.6286,-87.8866,71484,603,polygon,FALSE,TRUE
Mount Vernon,Mount Vernon,WA,Washington,53057,Skagit,48.4202,-122.3115,71422,1130,polygon,FALSE,TRUE
Weston,Weston,FL,Florida,12011,Broward,26.1006,-80.4054,71166,1117,polygon,FALSE,TRUE
St. Charles,St. Charles,MO,Missouri,29183,St. Charles,38.7954,-90.5157,71028,1104,polygon,FALSE,TRUE
Janesville,Janesville,WI,Wisconsin,55105,Rock,42.6855,-89.0136,70755,732,polygon,FALSE,TRUE
Sherman,Sherman,TX,Texas,48181,Grayson,33.6274,-96.6218,70704,372,polygon,FALSE,TRUE
North Richland Hills,North Richland Hills,TX,Texas,48439,Tarrant,32.8605,-97.218,70670,1505,polygon,FALSE,TRUE
Broomfield,Broomfield,CO,Colorado,8014,Broomfield,39.9541,-105.0527,70465,824,polygon,FALSE,TRUE
El Paso de Robles,El Paso de Robles,CA,California,6079,San Luis Obispo,35.6394,-120.656,70248,632,polygon,FALSE,TRUE
Bristol,Bristol,TN,Tennessee,47163,Sullivan,36.5572,-82.2154,70243,318,polygon,FALSE,TRUE
Wilmington,Wilmington,DE,Delaware,10003,New Castle,39.7415,-75.5413,70166,2484,polygon,FALSE,TRUE
Walnut Creek,Walnut Creek,CA,California,6013,Contra Costa,37.9024,-122.0398,70166,1371,polygon,FALSE,TRUE
Lynwood,Lynwood,CA,California,6037,Los Angeles,33.924,-118.2017,69887,5575,polygon,FALSE,TRUE
Glen Burnie,Glen Burnie,MD,Maryland,24003,Anne Arundel,39.1559,-76.6072,69813,1555,polygon,FALSE,FALSE
Lehi,Lehi,UT,Utah,49049,Utah,40.4136,-111.8726,69724,960,polygon,FALSE,TRUE
Passaic,Passaic,NJ,New Jersey,34031,Passaic,40.8574,-74.1282,69703,8590,polygon,FALSE,TRUE
Guaynabo,Guaynabo,PR,Puerto Rico,72061,Guaynabo,18.3839,-66.1134,69697,2233,polygon,FALSE,FALSE
Casas Adobes,Casas Adobes,AZ,Arizona,4019,Pima,32.3423,-111.0114,69615,1008,polygon,FALSE,FALSE
Homestead,Homestead,FL,Florida,12086,Miami-Dade,25.4665,-80.4472,69523,1779,polygon,FALSE,TRUE
West Bend,West Bend,WI,Wisconsin,55131,Washington,43.4184,-88.1824,69504,804,polygon,FALSE,TRUE
Delray Beach,Delray Beach,FL,Florida,12099,Palm Beach,26.455,-80.0905,69451,1685,polygon,FALSE,TRUE
Sheboygan,Sheboygan,WI,Wisconsin,55117,Sheboygan,43.7403,-87.7316,69393,1184,polygon,FALSE,TRUE
Lake Elsinore,Lake Elsinore,CA,California,6065,Riverside,33.6847,-117.3344,69283,699,polygon,FALSE,TRUE
Daytona Beach,Daytona Beach,FL,Florida,12127,Volusia,29.1994,-81.0982,69186,406,polygon,FALSE,TRUE
Los Lunas,Los Lunas,NM,New Mexico,35061,Valencia,34.8115,-106.7803,69020,331,polygon,FALSE,TRUE
Lima,Lima,OH,Ohio,39003,Allen,40.741,-84.1121,68878,1045,polygon,FALSE,TRUE
Decatur,Decatur,AL,Alabama,1103,Morgan,34.573,-86.9906,68867,388,polygon,FALSE,TRUE
Rocklin,Rocklin,CA,California,6061,Placer,38.8075,-121.2488,68823,1341,polygon,FALSE,TRUE
Rogers,Rogers,AR,Arkansas,5007,Benton,36.3172,-94.1526,68669,685,polygon,FALSE,TRUE
Castle Rock,Castle Rock,CO,Colorado,8035,Douglas,39.3763,-104.8535,68484,771,polygon,FALSE,TRUE
Hanover,Hanover,PA,Pennsylvania,42133,York,39.8117,-76.9835,68165,1641,polygon,FALSE,TRUE
Bossier City,Bossier City,LA,Louisiana,22015,Bossier,32.5227,-93.6666,68159,605,polygon,FALSE,TRUE
Dubuque,Dubuque,IA,Iowa,19061,Dubuque,42.5008,-90.7067,68109,729,polygon,FALSE,TRUE
Rockville,Rockville,MD,Maryland,24031,Montgomery,39.0834,-77.1552,68079,1933,polygon,FALSE,TRUE
Victoria,Victoria,TX,Texas,48469,Victoria,28.8285,-96.985,68078,694,polygon,FALSE,TRUE
Saratoga Springs,Saratoga Springs,NY,New York,36091,Saratoga,43.0674,-73.7775,68028,388,polygon,FALSE,TRUE
Gaithersburg,Gaithersburg,MD,Maryland,24031,Montgomery,39.1346,-77.2132,67985,2543,polygon,FALSE,TRUE
Union City,Union City,NJ,New Jersey,34017,Hudson,40.7674,-74.0323,67982,20394,polygon,FALSE,TRUE
Ames,Ames,IA,Iowa,19169,Story,42.0259,-93.6215,67910,935,polygon,FALSE,TRUE
West Des Moines,West Des Moines,IA,Iowa,19153,Polk,41.5522,-93.7805,67899,556,polygon,FALSE,TRUE
South San Francisco,South San Francisco,CA,California,6081,San Mateo,37.6536,-122.4197,67789,2837,polygon,FALSE,TRUE
Yorba Linda,Yorba Linda,CA,California,6059,Orange,33.889,-117.7714,67644,1316,polygon,FALSE,TRUE
Casper,Casper,WY,Wyoming,56025,Natrona,42.842,-106.3207,67598,843,polygon,FALSE,TRUE
Palatine,Palatine,IL,Illinois,17031,Cook,42.1181,-88.043,67482,1916,polygon,FALSE,TRUE
Corvallis,Corvallis,OR,Oregon,41003,Benton,44.5697,-123.278,67467,1592,polygon,FALSE,TRUE
Ankeny,Ankeny,IA,Iowa,19153,Polk,41.7285,-93.6033,67355,862,polygon,FALSE,TRUE
Mount Vernon,Mount Vernon,NY,New York,36119,Westchester,40.9136,-73.8291,67345,5930,polygon,FALSE,TRUE
Rowlett,Rowlett,TX,Texas,48113,Dallas,32.9157,-96.5488,67339,1244,polygon,FALSE,TRUE
Lakeville,Lakeville,MN,Minnesota,27037,Dakota,44.6774,-93.252,67317,715,polygon,FALSE,TRUE
Alpharetta,Alpharetta,GA,Georgia,13121,Fulton,34.0704,-84.2739,67213,964,polygon,FALSE,TRUE
Poinciana,Poinciana,FL,Florida,12105,Polk,28.1217,-81.482,67169,360,polygon,FALSE,FALSE
Longview,Longview,WA,Washington,53015,Cowlitz,46.1461,-122.9629,67081,1000,polygon,FALSE,TRUE
DeKalb,DeKalb,IL,Illinois,17037,DeKalb,41.9313,-88.7482,66959,1025,polygon,FALSE,TRUE
Petaluma,Petaluma,CA,California,6097,Sonoma,38.2423,-122.6267,66929,1620,polygon,FALSE,TRUE
Redondo Beach,Redondo Beach,CA,California,6037,Los Angeles,33.8574,-118.3766,66749,4158,polygon,FALSE,TRUE
Tamarac,Tamarac,FL,Florida,12011,Broward,26.2056,-80.2542,66721,2207,polygon,FALSE,TRUE
Laguna Niguel,Laguna Niguel,CA,California,6059,Orange,33.5275,-117.705,66385,1738,polygon,FALSE,TRUE
Eagan,Eagan,MN,Minnesota,27037,Dakota,44.8169,-93.1638,66372,821,polygon,FALSE,TRUE
Kenner,Kenner,LA,Louisiana,22051,Jefferson,30.0109,-90.2549,66340,1721,polygon,FALSE,TRUE
Bay City,Bay City,MI,Michigan,26017,Bay,43.5903,-83.8886,66107,1242,polygon,FALSE,TRUE
North Little Rock,North Little Rock,AR,Arkansas,5119,Pulaski,34.7808,-92.2371,65903,486,polygon,FALSE,TRUE
Sammamish,Sammamish,WA,Washington,53033,King,47.6017,-122.0416,65892,1245,polygon,FALSE,TRUE
Shawnee,Shawnee,KS,Kansas,20091,Johnson,39.0158,-94.8076,65807,605,polygon,FALSE,TRUE
Jupiter,Jupiter,FL,Florida,12099,Palm Beach,26.9199,-80.1128,65791,1174,polygon,FALSE,TRUE
Doral,Doral,FL,Florida,12086,Miami-Dade,25.8151,-80.3565,65741,1836,polygon,FALSE,TRUE
Carbondale,Carbondale,IL,Illinois,17077,Jackson,37.7221,-89.2238,65671,556,polygon,FALSE,TRUE
Blaine,Blaine,MN,Minnesota,27003,Anoka,45.1696,-93.2077,65607,769,polygon,FALSE,TRUE
Weirton,Weirton,WV,West Virginia,54029,Hancock,40.406,-80.5671,65578,390,polygon,FALSE,TRUE
Tulare,Tulare,CA,California,6107,Tulare,36.1996,-119.34,65496,1241,polygon,FALSE,TRUE
Wellington,Wellington,FL,Florida,12099,Palm Beach,26.6461,-80.2699,65398,561,polygon,FALSE,TRUE
Pflugerville,Pflugerville,TX,Texas,48453,Travis,30.452,-97.6022,65380,1013,polygon,FALSE,TRUE
Palo Alto,Palo Alto,CA,California,6085,Santa Clara,37.3913,-122.1468,65364,1058,polygon,FALSE,TRUE
Schenectady,Schenectady,NY,New York,36093,Schenectady,42.8025,-73.9276,65273,2335,polygon,FALSE,TRUE
Great Falls,Great Falls,MT,Montana,30013,Cascade,47.5022,-111.2995,65131,982,polygon,FALSE,TRUE
Michigan City,Michigan City,IN,Indiana,18091,LaPorte,41.7099,-86.8705,65058,608,polygon,FALSE,TRUE
Bayonne,Bayonne,NJ,New Jersey,34017,Hudson,40.6661,-74.1141,64897,4304,polygon,FALSE,TRUE
Eden Prairie,Eden Prairie,MN,Minnesota,27053,Hennepin,44.8488,-93.4595,64893,770,polygon,FALSE,TRUE
Port Orange,Port Orange,FL,Florida,12127,Volusia,29.1084,-81.0137,64842,933,polygon,FALSE,TRUE
Dublin,Dublin,CA,California,6001,Alameda,37.7161,-121.8963,64826,1643,polygon,FALSE,TRUE
Carmichael,Carmichael,CA,California,6067,Sacramento,38.6337,-121.323,64785,1859,polygon,FALSE,FALSE
Grand Forks,Grand Forks,ND,North Dakota,38035,Grand Forks,47.9218,-97.0886,64748,784,polygon,FALSE,TRUE
Noblesville,Noblesville,IN,Indiana,18057,Hamilton,40.0354,-86.0042,64668,726,polygon,FALSE,TRUE
San Clemente,San Clemente,CA,California,6059,Orange,33.4498,-117.6103,64558,1358,polygon,FALSE,TRUE
Brentwood,Brentwood,CA,California,6013,Contra Costa,37.9355,-121.7191,64474,1675,polygon,FALSE,TRUE
East Orange,East Orange,NJ,New Jersey,34013,Essex,40.7651,-74.2117,64367,6327,polygon,FALSE,TRUE
Florence-Graham,Florence-Graham,CA,California,6037,Los Angeles,33.9682,-118.2447,64162,7059,polygon,FALSE,TRUE
Eastvale,Eastvale,CA,California,6065,Riverside,33.9617,-117.5802,64157,1954,polygon,FALSE,TRUE
Chapel Hill,Chapel Hill,NC,North Carolina,37135,Orange,35.927,-79.0391,64051,1148,polygon,FALSE,TRUE
Rocky Mount,Rocky Mount,NC,North Carolina,37127,Nash,35.9676,-77.8048,64018,471,polygon,FALSE,TRUE
Haverhill,Haverhill,MA,Massachusetts,25009,Essex,42.7838,-71.0871,64014,748,polygon,FALSE,TRUE
Beloit,Beloit,WI,Wisconsin,55105,Rock,42.523,-89.0184,63762,822,polygon,FALSE,TRUE
Glens Falls,Glens Falls,NY,New York,36113,Warren,43.3109,-73.6459,63499,1430,polygon,FALSE,TRUE
Castro Valley,Castro Valley,CA,California,6001,Alameda,37.7091,-122.0631,63288,1472,polygon,FALSE,FALSE
Fairbanks,Fairbanks,AK,Alaska,2090,Fairbanks North Star,64.8353,-147.6534,63245,375,polygon,FALSE,TRUE
Springfield,Springfield,OR,Oregon,41039,Lane,44.0538,-122.981,63230,1541,polygon,FALSE,TRUE
Johnstown,Johnstown,PA,Pennsylvania,42021,Cambria,40.3258,-78.9193,63141,1257,polygon,FALSE,TRUE
West Hartford,West Hartford,CT,Connecticut,9003,Hartford,41.7669,-72.7536,63127,1116,polygon,FALSE,FALSE
Coon Rapids,Coon Rapids,MN,Minnesota,27003,Anoka,45.1755,-93.3095,62998,1075,polygon,FALSE,TRUE
Elmira,Elmira,NY,New York,36015,Chemung,42.0938,-76.8097,62989,1440,polygon,FALSE,TRUE
Brentwood,Brentwood,NY,New York,36103,Suffolk,40.7839,-73.2522,62942,2215,polygon,FALSE,FALSE
Mankato,Mankato,MN,Minnesota,27013,Blue Earth,44.1712,-93.9773,62889,868,polygon,FALSE,TRUE
Albany,Albany,OR,Oregon,41043,Linn,44.6274,-123.0966,62880,1218,polygon,FALSE,TRUE
North Miami,North Miami,FL,Florida,12086,Miami-Dade,25.9007,-80.1686,62822,2877,polygon,FALSE,TRUE
Dundalk,Dundalk,MD,Maryland,24005,Baltimore,39.2703,-76.4942,62768,1854,polygon,FALSE,FALSE
Encinitas,Encinitas,CA,California,6073,San Diego,33.049,-117.2613,62709,1270,polygon,FALSE,TRUE
Skokie,Skokie,IL,Illinois,17031,Cook,42.0359,-87.74,62700,2405,polygon,FALSE,TRUE
Leander,Leander,TX,Texas,48491,Williamson,30.5728,-97.8618,62608,644,polygon,FALSE,TRUE
Mayagüez,Mayaguez,PR,Puerto Rico,72097,Mayagüez,18.2003,-67.1397,62579,1151,polygon,FALSE,FALSE
Parkersburg,Parkersburg,WV,West Virginia,54107,Wood,39.2624,-81.542,62566,961,polygon,FALSE,TRUE
Waltham,Waltham,MA,Massachusetts,25017,Middlesex,42.3889,-71.2423,62495,1893,polygon,FALSE,TRUE
Bethesda,Bethesda,MD,Maryland,24031,Montgomery,38.9866,-77.1188,62448,1818,polygon,FALSE,FALSE
San Luis Obispo,San Luis Obispo,CA,California,6079,San Luis Obispo,35.2669,-120.6691,62290,1374,polygon,FALSE,TRUE
Sebring,Sebring,FL,Florida,12055,Highlands,27.477,-81.453,62250,404,polygon,FALSE,TRUE
Council Bluffs,Council Bluffs,IA,Iowa,19155,Pottawattamie,41.2369,-95.8517,62166,559,polygon,FALSE,TRUE
Hamilton,Hamilton,OH,Ohio,39017,Butler,39.3938,-84.5653,62082,1117,polygon,FALSE,TRUE
Moore,Moore,OK,Oklahoma,40027,Cleveland,35.3293,-97.4758,62055,1094,polygon,FALSE,TRUE
Pico Rivera,Pico Rivera,CA,California,6037,Los Angeles,33.9902,-118.0888,62027,2887,polygon,FALSE,TRUE
Palm Harbor,Palm Harbor,FL,Florida,12103,Pinellas,28.0847,-82.7481,61995,1380,polygon,FALSE,FALSE
Casa Grande,Casa Grande,AZ,Arizona,4021,Pinal,32.9068,-111.7624,61966,204,polygon,FALSE,TRUE
Monessen,Monessen,PA,Pennsylvania,42129,Westmoreland,40.1519,-79.8828,61960,967,polygon,FALSE,TRUE
Montebello,Montebello,CA,California,6037,Los Angeles,34.0155,-118.1108,61954,2870,polygon,FALSE,TRUE
Rome,Rome,GA,Georgia,13115,Floyd,34.2661,-85.1862,61537,449,polygon,FALSE,TRUE
Millcreek,Millcreek,UT,Utah,49035,Salt Lake,40.6892,-111.8291,61450,1859,polygon,FALSE,TRUE
Sanford,Sanford,FL,Florida,12117,Seminole,28.7893,-81.276,61448,1015,polygon,FALSE,TRUE
National City,National City,CA,California,6073,San Diego,32.6654,-117.0983,61394,3250,polygon,FALSE,TRUE
Burnsville,Burnsville,MN,Minnesota,27037,Dakota,44.7648,-93.2795,61339,953,polygon,FALSE,TRUE
Coconut Creek,Coconut Creek,FL,Florida,12011,Broward,26.2803,-80.1842,61248,2117,polygon,FALSE,TRUE
Port Charlotte,Port Charlotte,FL,Florida,12015,Charlotte,26.9918,-82.114,61204,829,polygon,FALSE,FALSE
Morristown,Morristown,TN,Tennessee,47063,Hamblen,36.2046,-83.3006,61171,426,polygon,FALSE,TRUE
Lakewood,Lakewood,WA,Washington,53053,Pierce,47.1628,-122.5299,61037,1381,polygon,FALSE,TRUE
Gadsden,Gadsden,AL,Alabama,1055,Etowah,34.009,-86.0156,60944,362,polygon,FALSE,TRUE
Taylor,Taylor,MI,Michigan,26163,Wayne,42.226,-83.2688,60922,996,polygon,FALSE,TRUE
Novi,Novi,MI,Michigan,26125,Oakland,42.4786,-83.4893,60896,777,polygon,FALSE,TRUE
Marietta,Marietta,GA,Georgia,13067,Cobb,33.9533,-84.5422,60867,1004,polygon,FALSE,TRUE
Hot Springs,Hot Springs,AR,Arkansas,5051,Garland,34.4892,-93.0501,60767,400,polygon,FALSE,TRUE
Woodland,Woodland,CA,California,6113,Yolo,38.6712,-121.75,60598,1527,polygon,FALSE,TRUE
La Habra,La Habra,CA,California,6059,Orange,33.9278,-117.9513,60513,3177,polygon,FALSE,TRUE
The Hammocks,The Hammocks,FL,Florida,12086,Miami-Dade,25.67,-80.4483,60473,2959,polygon,FALSE,FALSE
Malden,Malden,MA,Massachusetts,25017,Middlesex,42.4305,-71.0576,60470,4628,polygon,FALSE,TRUE
Commerce City,Commerce City,CO,Colorado,8001,Adams,39.8642,-104.8434,60336,652,polygon,FALSE,TRUE
Reston,Reston,VA,Virginia,51059,Fairfax,38.9497,-77.3461,60335,1519,polygon,FALSE,FALSE
South Whittier,South Whittier,CA,California,6037,Los Angeles,33.9336,-118.0311,60096,4347,polygon,FALSE,FALSE
Bristol,Bristol,CT,Connecticut,9003,Hartford,41.6812,-72.9407,59947,876,polygon,FALSE,TRUE
Columbus,Columbus,IN,Indiana,18005,Bartholomew,39.2093,-85.9183,59897,660,polygon,FALSE,TRUE
West Allis,West Allis,WI,Wisconsin,55079,Milwaukee,43.0068,-88.0296,59890,2031,polygon,FALSE,TRUE
Fountainebleau,Fountainebleau,FL,Florida,12086,Miami-Dade,25.7723,-80.3458,59833,5785,polygon,FALSE,FALSE
Taylorsville,Taylorsville,UT,Utah,49035,Salt Lake,40.657,-111.9493,59805,2128,polygon,FALSE,TRUE
Bangor,Bangor,ME,Maine,23019,Penobscot,44.8322,-68.7906,59772,363,polygon,FALSE,TRUE
Monterey Park,Monterey Park,CA,California,6037,Los Angeles,34.0497,-118.1326,59669,3002,polygon,FALSE,TRUE
Greenwood,Greenwood,IN,Indiana,18081,Johnson,39.6019,-86.1073,59458,822,polygon,FALSE,TRUE
Bartlett,Bartlett,TN,Tennessee,47157,Shelby,35.2337,-89.8195,59440,710,polygon,FALSE,TRUE
Bradenton,Bradenton,FL,Florida,12081,Manatee,27.49,-82.5739,59439,1596,polygon,FALSE,TRUE
Pontiac,Pontiac,MI,Michigan,26125,Oakland,42.6493,-83.2878,59438,1154,polygon,FALSE,TRUE
Staunton,Staunton,VA,Virginia,51790,Staunton,38.1593,-79.0611,59433,483,polygon,FALSE,TRUE
Meriden,Meriden,CT,Connecticut,9009,New Haven,41.5367,-72.7944,59395,963,polygon,FALSE,TRUE
Gardena,Gardena,CA,California,6037,Los Angeles,33.8944,-118.3073,59329,3929,polygon,FALSE,TRUE
Apex,Apex,NC,North Carolina,37183,Wake,35.7239,-78.8728,59300,1100,polygon,FALSE,TRUE
Royal Oak,Royal Oak,MI,Michigan,26125,Oakland,42.5084,-83.1539,59277,1940,polygon,FALSE,TRUE
Cupertino,Cupertino,CA,California,6085,Santa Clara,37.3168,-122.0465,59276,2023,polygon,FALSE,TRUE
La Mesa,La Mesa,CA,California,6073,San Diego,32.7703,-117.0204,59249,2515,polygon,FALSE,TRUE
Brookline,Brookline,MA,Massachusetts,25021,Norfolk,42.3243,-71.1408,59234,3383,polygon,FALSE,FALSE
Benton Harbor,Benton Harbor,MI,Michigan,26021,Berrien,42.1159,-86.4488,59216,858,polygon,FALSE,TRUE
St. Clair Shores,St. Clair Shores,MI,Michigan,26099,Macomb,42.4921,-82.8957,58984,1949,polygon,FALSE,TRUE
Des Plaines,Des Plaines,IL,Illinois,17031,Cook,42.0345,-87.9009,58899,1598,polygon,FALSE,TRUE
Lewiston,Lewiston,ME,Maine,23001,Androscoggin,44.0915,-70.1681,58802,409,polygon,FALSE,TRUE
Margate,Margate,FL,Florida,12011,Broward,26.2466,-80.2119,58796,2591,polygon,FALSE,TRUE
Midland,Midland,MI,Michigan,26111,Midland,43.6241,-84.2319,58787,468,polygon,FALSE,TRUE
Spring,Spring,TX,Texas,48201,Harris,30.0613,-95.383,58756,1008,polygon,FALSE,FALSE
Carson City,Carson City,NV,Nevada,32510,Carson City,39.1512,-119.7474,58756,149,polygon,FALSE,TRUE
Bowie,Bowie,MD,Maryland,24033,Prince George's,38.9569,-76.7409,58643,1144,polygon,FALSE,TRUE
Middletown,Middletown,NY,New York,36071,Orange,41.4459,-74.4236,58592,2048,polygon,FALSE,TRUE
Caldwell,Caldwell,ID,Idaho,16027,Canyon,43.6453,-116.6591,58481,998,polygon,FALSE,TRUE
San Rafael,San Rafael,CA,California,6041,Marin,37.9905,-122.5222,58440,1361,polygon,FALSE,TRUE
Kendale Lakes,Kendale Lakes,FL,Florida,12086,Miami-Dade,25.7081,-80.4078,58395,2792,polygon,FALSE,FALSE
Towson,Towson,MD,Maryland,24005,Baltimore,39.3944,-76.619,58347,1591,polygon,FALSE,FALSE
Richland,Richland,WA,Washington,53005,Benton,46.2824,-119.2938,58225,573,polygon,FALSE,TRUE
St. Peters,St. Peters,MO,Missouri,29183,St. Charles,38.7824,-90.6061,58212,1003,polygon,FALSE,TRUE
South Hill,South Hill,WA,Washington,53053,Pierce,47.1203,-122.2848,58164,1223,polygon,FALSE,FALSE
Hendersonville,Hendersonville,TN,Tennessee,47165,Sumner,36.3063,-86.5998,58113,714,polygon,FALSE,TRUE
White Plains,White Plains,NY,New York,36119,Westchester,41.022,-73.7549,58109,2291,polygon,FALSE,TRUE
Huntersville,Huntersville,NC,North Carolina,37119,Mecklenburg,35.4058,-80.8727,58098,550,polygon,FALSE,TRUE
Santee,Santee,CA,California,6073,San Diego,32.8554,-116.9851,58081,1355,polygon,FALSE,TRUE
Jefferson City,Jefferson City,MO,Missouri,29051,Cole,38.5676,-92.1759,58025,457,polygon,FALSE,TRUE
Beckley,Beckley,WV,West Virginia,54081,Raleigh,37.7878,-81.1841,57942,647,polygon,FALSE,TRUE
Arcadia,Arcadia,CA,California,6037,Los Angeles,34.1342,-118.0373,57939,2047,polygon,FALSE,TRUE
Titusville,Titusville,FL,Florida,12009,Brevard,28.5727,-80.8193,57891,615,polygon,FALSE,TRUE
Cartersville,Cartersville,GA,Georgia,13015,Bartow,34.1639,-84.8007,57873,289,polygon,FALSE,TRUE
Walla Walla,Walla Walla,WA,Washington,53071,Walla Walla,46.067,-118.3366,57860,926,polygon,FALSE,TRUE
Orland Park,Orland Park,IL,Illinois,17031,Cook,41.6074,-87.8619,57857,1014,polygon,FALSE,TRUE
Weymouth Town,Weymouth Town,MA,Massachusetts,25021,Norfolk,42.1984,-70.9466,57746,1329,polygon,FALSE,TRUE
Parker,Parker,CO,Colorado,8035,Douglas,39.5084,-104.7753,57706,1003,polygon,FALSE,TRUE
Palm Beach Gardens,Palm Beach Gardens,FL,Florida,12099,Palm Beach,26.8466,-80.1679,57704,379,polygon,FALSE,TRUE
Bozeman,Bozeman,MT,Montana,30031,Gallatin,45.6832,-111.0552,57695,945,polygon,FALSE,TRUE
East Stroudsburg,East Stroudsburg,PA,Pennsylvania,42089,Monroe,41.0023,-75.1779,57577,1416,polygon,FALSE,TRUE
Tamiami,Tamiami,FL,Florida,12086,Miami-Dade,25.7556,-80.4016,57514,3150,polygon,FALSE,FALSE
Huntington Park,Huntington Park,CA,California,6037,Los Angeles,33.98,-118.2167,57509,7370,polygon,FALSE,TRUE
Taunton,Taunton,MA,Massachusetts,25005,Bristol,41.9036,-71.0943,57464,475,polygon,FALSE,TRUE
Midwest City,Midwest City,OK,Oklahoma,40109,Oklahoma,35.463,-97.3709,57407,907,polygon,FALSE,TRUE
Medford,Medford,MA,Massachusetts,25017,Middlesex,42.4234,-71.1087,57341,2733,polygon,FALSE,TRUE
Goldsboro,Goldsboro,NC,North Carolina,37191,Wayne,35.3778,-77.972,57278,462,polygon,FALSE,TRUE
Euless,Euless,TX,Texas,48439,Tarrant,32.8508,-97.0799,57197,1368,polygon,FALSE,TRUE
Manhattan,Manhattan,KS,Kansas,20161,Riley,39.1886,-96.6046,57046,1062,polygon,FALSE,TRUE
Shoreline,Shoreline,WA,Washington,53033,King,47.7564,-122.3426,57027,1892,polygon,FALSE,TRUE
Lake Havasu City,Lake Havasu City,AZ,Arizona,4015,Mohave,34.5006,-114.3113,56820,465,polygon,FALSE,TRUE
Smyrna,Smyrna,GA,Georgia,13067,Cobb,33.8633,-84.5168,56666,1406,polygon,FALSE,TRUE
Cape Girardeau,Cape Girardeau,MO,Missouri,29031,Cape Girardeau,37.3108,-89.5597,56551,538,polygon,FALSE,TRUE
Grants Pass,Grants Pass,OR,Oregon,41033,Josephine,42.4333,-123.3317,55837,1279,polygon,FALSE,TRUE
Blue Springs,Blue Springs,MO,Missouri,29095,Jackson,39.0124,-94.2721,55829,961,polygon,FALSE,TRUE
Southaven,Southaven,MS,Mississippi,28033,DeSoto,34.9514,-89.9787,55780,521,polygon,FALSE,TRUE
Tinley Park,Tinley Park,IL,Illinois,17031,Cook,41.567,-87.805,55773,1336,polygon,FALSE,TRUE
Diamond Bar,Diamond Bar,CA,California,6037,Los Angeles,33.9991,-117.8161,55720,1446,polygon,FALSE,TRUE
Pittsfield,Pittsfield,MA,Massachusetts,25003,Berkshire,42.4517,-73.2605,55697,402,polygon,FALSE,TRUE
Eagle Pass,Eagle Pass,TX,Texas,48323,Maverick,28.7125,-100.484,55686,1216,polygon,FALSE,TRUE
New Brunswick,New Brunswick,NJ,New Jersey,34023,Middlesex,40.487,-74.445,55676,4108,polygon,FALSE,TRUE
Lenexa,Lenexa,KS,Kansas,20091,Johnson,38.9609,-94.8018,55625,630,polygon,FALSE,TRUE
Hazleton,Hazleton,PA,Pennsylvania,42079,Luzerne,40.9504,-75.9724,55604,1592,polygon,FALSE,TRUE
Twin Falls,Twin Falls,ID,Idaho,16083,Twin Falls,42.5645,-114.4615,55556,1008,polygon,FALSE,TRUE
Brookhaven,Brookhaven,GA,Georgia,13089,DeKalb,33.8744,-84.3314,55554,1847,polygon,FALSE,TRUE
Lakewood,Lakewood,NJ,New Jersey,34029,Ocean,40.0942,-74.2117,55532,3028,polygon,FALSE,FALSE
Novato,Novato,CA,California,6041,Marin,38.092,-122.5576,55516,780,polygon,FALSE,TRUE
Tigard,Tigard,OR,Oregon,41067,Washington,45.4237,-122.7845,55514,1680,polygon,FALSE,TRUE
Aloha,Aloha,OR,Oregon,41067,Washington,45.492,-122.8726,55492,2915,polygon,FALSE,FALSE
Highland,Highland,CA,California,6071,San Bernardino,34.1113,-117.1654,55417,1141,polygon,FALSE,TRUE
Fountain Valley,Fountain Valley,CA,California,6059,Orange,33.7105,-117.9514,55357,2356,polygon,FALSE,TRUE
Dearborn Heights,Dearborn Heights,MI,Michigan,26163,Wayne,42.3164,-83.2769,55353,1820,polygon,FALSE,TRUE
Grapevine,Grapevine,TX,Texas,48439,Tarrant,32.9343,-97.0744,55281,667,polygon,FALSE,TRUE
Fond du Lac,Fond du Lac,WI,Wisconsin,55039,Fond du Lac,43.7718,-88.4396,55209,869,polygon,FALSE,TRUE
Ithaca,Ithaca,NY,New York,36109,Tompkins,42.4442,-76.5032,55137,2209,polygon,FALSE,TRUE
Apple Valley,Apple Valley,MN,Minnesota,27037,Dakota,44.7457,-93.2006,55135,1254,polygon,FALSE,TRUE
Chicopee,Chicopee,MA,Massachusetts,25013,Hampden,42.1764,-72.5719,55126,929,polygon,FALSE,TRUE
Hempstead,Hempstead,NY,New York,36059,Nassau,40.7043,-73.6193,55113,5775,polygon,FALSE,TRUE
Wesley Chapel,Wesley Chapel,FL,Florida,12101,Pasco,28.2106,-82.3238,55046,483,polygon,FALSE,FALSE
Oak Lawn,Oak Lawn,IL,Illinois,17031,Cook,41.7139,-87.7528,55022,2478,polygon,FALSE,TRUE
Cathedral City,Cathedral City,CA,California,6065,Riverside,33.8363,-116.4642,55007,944,polygon,FALSE,TRUE
Hacienda Heights,Hacienda Heights,CA,California,6037,Los Angeles,33.997,-117.9728,54970,1898,polygon,FALSE,FALSE
Delano,Delano,CA,California,6029,Kern,35.767,-119.2637,54917,1448,polygon,FALSE,TRUE
Bentonville,Bentonville,AR,Arkansas,5007,Benton,36.3546,-94.2306,54909,627,polygon,FALSE,TRUE
Stonecrest,Stonecrest,GA,Georgia,13089,DeKalb,33.6842,-84.1372,54903,566,polygon,FALSE,TRUE
Kettering,Kettering,OH,Ohio,39113,Montgomery,39.6957,-84.1495,54855,1133,polygon,FALSE,TRUE
Colton,Colton,CA,California,6071,San Bernardino,34.0538,-117.3254,54824,1362,polygon,FALSE,TRUE
Kingston,Kingston,NY,New York,36111,Ulster,41.9295,-73.9968,54791,1176,polygon,FALSE,TRUE
West Haven,West Haven,CT,Connecticut,9009,New Haven,41.2739,-72.9672,54620,1961,polygon,FALSE,TRUE
St. Cloud,St. Cloud,FL,Florida,12097,Osceola,28.2294,-81.2829,54579,1038,polygon,FALSE,TRUE
Normal,Normal,IL,Illinois,17113,McLean,40.5218,-88.9881,54469,1149,polygon,FALSE,TRUE
Berwyn,Berwyn,IL,Illinois,17031,Cook,41.8433,-87.7909,54391,5378,polygon,FALSE,TRUE
Arroyo Grande,Arroyo Grande,CA,California,6079,San Luis Obispo,35.1241,-120.5845,54177,1168,polygon,FALSE,TRUE
Minnetonka,Minnetonka,MN,Minnesota,27053,Hennepin,44.9322,-93.4598,54064,775,polygon,FALSE,TRUE
Rosemead,Rosemead,CA,California,6037,Los Angeles,34.0689,-118.0823,54058,4043,polygon,FALSE,TRUE
Paramount,Paramount,CA,California,6037,Los Angeles,33.8976,-118.1652,53955,4405,polygon,FALSE,TRUE
Yucaipa,Yucaipa,CA,California,6071,San Bernardino,34.0336,-117.0429,53921,735,polygon,FALSE,TRUE
Brunswick,Brunswick,GA,Georgia,13127,Glynn,31.145,-81.474,53914,367,polygon,FALSE,TRUE
Williamsport,Williamsport,PA,Pennsylvania,42081,Lycoming,41.2398,-77.0371,53861,1246,polygon,FALSE,TRUE
Elyria,Elyria,OH,Ohio,39093,Lorain,41.3761,-82.1063,53757,1009,polygon,FALSE,TRUE
Leesburg,Leesburg,VA,Virginia,51107,Loudoun,39.1058,-77.5544,53727,1673,polygon,FALSE,TRUE
Mount Prospect,Mount Prospect,IL,Illinois,17031,Cook,42.0641,-87.9375,53719,1934,polygon,FALSE,TRUE
Pinellas Park,Pinellas Park,FL,Florida,12103,Pinellas,27.8589,-82.7078,53637,1289,polygon,FALSE,TRUE
Bellevue,Bellevue,NE,Nebraska,31153,Sarpy,41.1535,-95.9357,53544,1247,polygon,FALSE,TRUE
West Sacramento,West Sacramento,CA,California,6113,Yolo,38.5557,-121.5504,53519,962,polygon,FALSE,TRUE
Apopka,Apopka,FL,Florida,12095,Orange,28.7014,-81.5304,53447,613,polygon,FALSE,TRUE
Lewiston,Lewiston,ID,Idaho,16069,Nez Perce,46.3934,-116.9934,53384,731,polygon,FALSE,TRUE
Grand Island,Grand Island,NE,Nebraska,31079,Hall,40.9214,-98.3584,53296,665,polygon,FALSE,TRUE
Palm Desert,Palm Desert,CA,California,6065,Riverside,33.7378,-116.3695,53275,767,polygon,FALSE,TRUE
Milford city ,Milford city ,CT,Connecticut,9009,New Haven,41.2256,-73.0625,53195,937,polygon,FALSE,TRUE
Watertown,Watertown,NY,New York,36045,Jefferson,43.9734,-75.9094,53163,1061,polygon,FALSE,TRUE
Little Elm,Little Elm,TX,Texas,48121,Denton,33.1856,-96.929,53126,1151,polygon,FALSE,TRUE
Chambersburg,Chambersburg,PA,Pennsylvania,42055,Franklin,39.9315,-77.6556,53083,1178,polygon,FALSE,TRUE
Revere,Revere,MA,Massachusetts,25025,Suffolk,42.4192,-71.0036,53073,3592,polygon,FALSE,TRUE
Peabody,Peabody,MA,Massachusetts,25009,Essex,42.5335,-70.9724,53070,1262,polygon,FALSE,TRUE
Wylie,Wylie,TX,Texas,48085,Collin,33.0362,-96.5161,53067,928,polygon,FALSE,TRUE
Beaufort,Beaufort,SC,South Carolina,45013,Beaufort,32.4597,-80.7235,53051,212,polygon,FALSE,TRUE
DeSoto,DeSoto,TX,Texas,48113,Dallas,32.5992,-96.8633,52988,945,polygon,FALSE,TRUE
Helena,Helena,MT,Montana,30049,Lewis and Clark,46.5965,-112.0202,52936,760,polygon,FALSE,TRUE
Edina,Edina,MN,Minnesota,27053,Hennepin,44.8914,-93.3602,52857,1320,polygon,FALSE,TRUE
Aspen Hill,Aspen Hill,MD,Maryland,24031,Montgomery,39.0928,-77.0823,52807,2124,polygon,FALSE,FALSE
Wheaton,Wheaton,IL,Illinois,17043,DuPage,41.8561,-88.1083,52745,1801,polygon,FALSE,TRUE
West New York,West New York,NJ,New Jersey,34017,Hudson,40.7856,-74.0093,52723,20473,polygon,FALSE,TRUE
Hoboken,Hoboken,NJ,New Jersey,34017,Hudson,40.7453,-74.0279,52677,16268,polygon,FALSE,TRUE
Lacey,Lacey,WA,Washington,53067,Thurston,47.046,-122.7934,52592,1187,polygon,FALSE,TRUE
Summerville,Summerville,SC,South Carolina,45035,Dorchester,33.0015,-80.1799,52549,1030,polygon,FALSE,TRUE
Oak Park,Oak Park,IL,Illinois,17031,Cook,41.8872,-87.7899,52381,4303,polygon,FALSE,TRUE
Lompoc,Lompoc,CA,California,6083,Santa Barbara,34.6618,-120.4714,52020,1423,polygon,FALSE,TRUE
Kentwood,Kentwood,MI,Michigan,26081,Kent,42.8852,-85.5925,51898,958,polygon,FALSE,TRUE
Sierra Vista,Sierra Vista,AZ,Arizona,4003,Cochise,31.563,-110.3153,51731,109,polygon,FALSE,TRUE
Levittown,Levittown,PA,Pennsylvania,42017,Bucks,40.1537,-74.853,51726,1965,polygon,FALSE,FALSE
Madison,Madison,AL,Alabama,1089,Madison,34.7114,-86.7626,51593,657,polygon,FALSE,TRUE
Smyrna,Smyrna,TN,Tennessee,47149,Rutherford,35.9722,-86.5253,51586,657,polygon,FALSE,TRUE
Glendora,Glendora,CA,California,6037,Los Angeles,34.1449,-117.8468,51544,1020,polygon,FALSE,TRUE
Levittown,Levittown,NY,New York,36059,Nassau,40.7241,-73.5125,51539,2921,polygon,FALSE,FALSE
Burien,Burien,WA,Washington,53033,King,47.4762,-122.3394,51500,1980,polygon,FALSE,TRUE
Perth Amboy,Perth Amboy,NJ,New Jersey,34023,Middlesex,40.5203,-74.2724,51390,4255,polygon,FALSE,TRUE
Herriman,Herriman,UT,Utah,49035,Salt Lake,40.4899,-112.0171,51348,916,polygon,FALSE,TRUE
Farmington,Farmington,NM,New Mexico,35045,San Juan,36.7555,-108.1823,51309,497,polygon,FALSE,TRUE
New Bern,New Bern,NC,North Carolina,37049,Craven,35.0955,-77.0723,51308,409,polygon,FALSE,TRUE
Placentia,Placentia,CA,California,6059,Orange,33.8807,-117.8553,51233,2990,polygon,FALSE,TRUE
Hinesville,Hinesville,GA,Georgia,13179,Liberty,31.8247,-81.6135,51206,707,polygon,FALSE,TRUE
Beaumont,Beaumont,CA,California,6065,Riverside,33.9076,-116.9766,51063,650,polygon,FALSE,TRUE
Collierville,Collierville,TN,Tennessee,47157,Shelby,35.0471,-89.6988,51040,544,polygon,FALSE,TRUE
West Lafayette,West Lafayette,IN,Indiana,18157,Tippecanoe,40.4432,-86.9239,50996,1449,polygon,FALSE,TRUE
Florissant,Florissant,MO,Missouri,29189,St. Louis,38.7996,-90.3269,50952,1567,polygon,FALSE,TRUE
Hoffman Estates,Hoffman Estates,IL,Illinois,17031,Cook,42.0639,-88.1468,50932,933,polygon,FALSE,TRUE
Queen Creek,Queen Creek,AZ,Arizona,4013,Maricopa,33.2386,-111.6343,50890,606,polygon,FALSE,TRUE
Aliso Viejo,Aliso Viejo,CA,California,6059,Orange,33.5792,-117.7289,50887,2839,polygon,FALSE,TRUE
Kannapolis,Kannapolis,NC,North Carolina,37025,Cabarrus,35.4764,-80.6403,50841,602,polygon,FALSE,TRUE
Maricopa,Maricopa,AZ,Arizona,4021,Pinal,33.0404,-112.0006,50752,470,polygon,FALSE,TRUE
Methuen Town,Methuen Town,MA,Massachusetts,25009,Essex,42.734,-71.1889,50706,881,polygon,FALSE,TRUE
Sahuarita,Sahuarita,AZ,Arizona,4019,Pima,31.9323,-110.9654,50616,382,polygon,FALSE,TRUE
Rowland Heights,Rowland Heights,CA,California,6037,Los Angeles,33.9716,-117.8911,50602,1494,polygon,FALSE,FALSE
Traverse City,Traverse City,MI,Michigan,26055,Grand Traverse,44.7547,-85.6035,50522,729,polygon,FALSE,TRUE
Wheaton,Wheaton,MD,Maryland,24031,Montgomery,39.0492,-77.0572,50459,2823,polygon,FALSE,FALSE
East Hartford,East Hartford,CT,Connecticut,9003,Hartford,41.7634,-72.6152,50453,1082,polygon,FALSE,FALSE
Irondequoit,Irondequoit,NY,New York,36055,Monroe,43.2096,-77.5705,50427,1298,polygon,FALSE,FALSE
Catalina Foothills,Catalina Foothills,AZ,Arizona,4019,Pima,32.3041,-110.8835,50426,465,polygon,FALSE,FALSE
Cookeville,Cookeville,TN,Tennessee,47141,Putnam,36.1484,-85.5114,50408,378,polygon,FALSE,TRUE
Mishawaka,Mishawaka,IN,Indiana,18141,St. Joseph,41.6736,-86.1669,50363,1101,polygon,FALSE,TRUE
Plainfield,Plainfield,NJ,New Jersey,34039,Union,40.6154,-74.4157,50317,3260,polygon,FALSE,TRUE
Bullhead City,Bullhead City,AZ,Arizona,4015,Mohave,35.1205,-114.546,50309,265,polygon,FALSE,TRUE
Ashburn,Ashburn,VA,Virginia,51107,Loudoun,39.03,-77.4711,50290,1130,polygon,FALSE,FALSE
North Bethesda,North Bethesda,MD,Maryland,24031,Montgomery,39.0393,-77.1191,50262,2188,polygon,FALSE,FALSE
Forney,Forney,TX,Texas,48257,Kaufman,32.744,-96.4529,50251,710,polygon,FALSE,TRUE
Severn,Severn,MD,Maryland,24003,Anne Arundel,39.1355,-76.6958,50052,1054,polygon,FALSE,FALSE
Azusa,Azusa,CA,California,6037,Los Angeles,34.1386,-117.9124,49974,1996,polygon,FALSE,TRUE
Cerritos,Cerritos,CA,California,6037,Los Angeles,33.8677,-118.0686,49859,2207,polygon,FALSE,TRUE
Bloomsburg,Bloomsburg,PA,Pennsylvania,42037,Columbia,41.0027,-76.4561,49840,1226,polygon,FALSE,TRUE
Morehead City,Morehead City,NC,North Carolina,37031,Carteret,34.7308,-76.7387,49760,504,polygon,FALSE,TRUE
Coral Gables,Coral Gables,FL,Florida,12086,Miami-Dade,25.7037,-80.2715,49700,1484,polygon,FALSE,TRUE
Country Club,Country Club,FL,Florida,12086,Miami-Dade,25.9407,-80.3102,49684,4595,polygon,FALSE,FALSE
Lakewood,Lakewood,OH,Ohio,39035,Cuyahoga,41.4824,-81.8008,49678,3460,polygon,FALSE,TRUE
Oroville,Oroville,CA,California,6007,Butte,39.4999,-121.5634,49513,578,polygon,FALSE,TRUE
Wilson,Wilson,NC,North Carolina,37195,Wilson,35.7312,-77.9284,49483,613,polygon,FALSE,TRUE
Lawrence,Lawrence,IN,Indiana,18097,Marion,39.8674,-85.9905,49462,945,polygon,FALSE,TRUE
Portage,Portage,MI,Michigan,26077,Kalamazoo,42.2,-85.5906,49445,591,polygon,FALSE,TRUE
Minot,Minot,ND,North Dakota,38101,Ward,48.2375,-101.2781,49425,671,polygon,FALSE,TRUE
Dunwoody,Dunwoody,GA,Georgia,13089,DeKalb,33.9418,-84.3122,49356,1462,polygon,FALSE,TRUE
Poway,Poway,CA,California,6073,San Diego,32.9871,-117.0201,49323,487,polygon,FALSE,TRUE
San Jacinto,San Jacinto,CA,California,6065,Riverside,33.797,-116.9916,49215,738,polygon,FALSE,TRUE
Troy,Troy,NY,New York,36083,Rensselaer,42.7354,-73.6751,49154,1832,polygon,FALSE,TRUE
Newark,Newark,CA,California,6001,Alameda,37.5204,-122.0312,49149,1367,polygon,FALSE,TRUE
Florin,Florin,CA,California,6067,Sacramento,38.4832,-121.4042,49132,2179,polygon,FALSE,FALSE
Cuyahoga Falls,Cuyahoga Falls,OH,Ohio,39153,Summit,41.1641,-81.5207,49106,734,polygon,FALSE,TRUE
Downers Grove,Downers Grove,IL,Illinois,17043,DuPage,41.7949,-88.017,49057,1304,polygon,FALSE,TRUE
Bedford,Bedford,TX,Texas,48439,Tarrant,32.8464,-97.135,49049,1890,polygon,FALSE,TRUE
Reedley,Reedley,CA,California,6019,Fresno,36.5987,-119.4473,49042,1818,polygon,FALSE,TRUE
Dublin,Dublin,OH,Ohio,39049,Franklin,40.1112,-83.1454,49037,767,polygon,FALSE,TRUE
Marana,Marana,AZ,Arizona,4019,Pima,32.4355,-111.1558,49030,156,polygon,FALSE,TRUE
Stillwater,Stillwater,OK,Oklahoma,40119,Payne,36.1316,-97.074,49008,657,polygon,FALSE,TRUE
Cypress,Cypress,CA,California,6059,Orange,33.8171,-118.0386,49006,2861,polygon,FALSE,TRUE
Hollister,Hollister,CA,California,6069,San Benito,36.8563,-121.3981,48992,2140,polygon,FALSE,TRUE
North Highlands,North Highlands,CA,California,6067,Sacramento,38.6713,-121.3721,48968,2145,polygon,FALSE,FALSE
Murray,Murray,UT,Utah,49035,Salt Lake,40.6498,-111.8874,48917,1532,polygon,FALSE,TRUE
Roswell,Roswell,NM,New Mexico,35005,Chaves,33.373,-104.5294,48889,617,polygon,FALSE,TRUE
Pascagoula,Pascagoula,MS,Mississippi,28059,Jackson,30.3665,-88.5507,48869,544,polygon,FALSE,TRUE
Ceres,Ceres,CA,California,6099,Stanislaus,37.5953,-120.9625,48706,2009,polygon,FALSE,TRUE
St. Louis Park,St. Louis Park,MN,Minnesota,27053,Hennepin,44.9488,-93.3649,48662,1767,polygon,FALSE,TRUE
Rio Grande City,Rio Grande City,TX,Texas,48427,Starr,26.3808,-98.8215,48610,493,polygon,FALSE,TRUE
Draper,Draper,UT,Utah,49035,Salt Lake,40.4957,-111.8605,48587,626,polygon,FALSE,TRUE
Palm Springs,Palm Springs,CA,California,6065,Riverside,33.8017,-116.5382,48518,198,polygon,FALSE,TRUE
Paducah,Paducah,KY,Kentucky,21145,McCracken,37.0711,-88.6436,48481,475,polygon,FALSE,TRUE
Findlay,Findlay,OH,Ohio,39063,Hancock,41.0467,-83.6379,48469,810,polygon,FALSE,TRUE
Kyle,Kyle,TX,Texas,48209,Hays,29.9937,-97.8859,48393,613,polygon,FALSE,TRUE
Monroe,Monroe,MI,Michigan,26115,Monroe,41.9154,-83.385,48317,834,polygon,FALSE,TRUE
Tuckahoe,Tuckahoe,VA,Virginia,51087,Henrico,37.5878,-77.5858,48282,912,polygon,FALSE,FALSE
Lincoln,Lincoln,CA,California,6061,Placer,38.8759,-121.2916,48275,792,polygon,FALSE,TRUE
Bel Air South,Bel Air South,MD,Maryland,24025,Harford,39.5051,-76.3197,48269,1189,polygon,FALSE,TRUE
Ocoee,Ocoee,FL,Florida,12095,Orange,28.5787,-81.5338,48263,1217,polygon,FALSE,TRUE
Burleson,Burleson,TX,Texas,48251,Johnson,32.517,-97.3343,48225,658,polygon,FALSE,TRUE
La Mirada,La Mirada,CA,California,6037,Los Angeles,33.9025,-118.0093,48183,2378,polygon,FALSE,TRUE
